{"meta": {"total": 347}, "data": [{"id": "1013002", "name": "北京金街咖啡店", "address": {"city": "北京市", "streetAddressLine1": "东城区", "streetAddressLine2": "新燕莎金街购物中心一层MF105-1、MF105-2商铺", "streetAddressLine3": "王府井大街301号", "postalCode": "100000"}, "coordinates": {"latitude": 39.909977, "longitude": 116.410369}, "today": {"closeTime": "22:00:00", "openTime": "08:00:00"}, "features": ["OG", "DL", "MIC", "PO"], "hasArtwork": false, "storeNumber": "28844-251204"}, {"id": "1545", "name": "北京东方广场西店", "address": {"city": "北京市", "streetAddressLine1": "东城区", "streetAddressLine2": "东方广场东方新天地商场地下一层", "streetAddressLine3": "东长安街1号", "postalCode": "100738"}, "coordinates": {"latitude": 39.90912, "longitude": 116.412216}, "today": {"closeTime": "22:00:00", "openTime": "07:00:00"}, "features": ["OG", "DL", "MIC"], "hasArtwork": false, "storeNumber": "34055-96031"}, {"id": "113953", "name": "北京东方广场三店", "address": {"city": "北京市", "streetAddressLine1": "东城区", "streetAddressLine2": "北京东方广场东方新天地商场平台层", "streetAddressLine3": "东长安街1号P-W1(08-10)号店铺", "postalCode": "100000"}, "coordinates": {"latitude": 39.909328, "longitude": 116.413}, "today": {"closeTime": "21:00:00", "openTime": "07:00:00"}, "features": ["OG", "DL", "NCB", "PO", "SBB"], "hasArtwork": false, "storeNumber": "18248-188765"}, {"id": "1019561", "name": "北京王府井第二咖啡店", "address": {"city": "北京市", "streetAddressLine1": "东城区", "streetAddressLine2": "269号院1号楼B1层-102号商铺", "streetAddressLine3": "王府井大街", "postalCode": "100000"}, "coordinates": {"latitude": 39.912353, "longitude": 116.410232}, "today": {"closeTime": "22:00:00", "openTime": "10:00:00"}, "features": ["OG", "BE", "NCB", "RC", "SBB"], "hasArtwork": false, "storeNumber": "51159-268526"}, {"id": "1904", "name": "北京前门大街店", "address": {"city": "北京市", "streetAddressLine1": "崇文区", "streetAddressLine2": null, "streetAddressLine3": "前门大街1-1号", "postalCode": "100000"}, "coordinates": {"latitude": 39.8983, "longitude": 116.397813}, "today": {"closeTime": "22:00:00", "openTime": "08:30:00"}, "features": ["OG", "MIC"], "hasArtwork": false, "storeNumber": "3890-129025"}, {"id": "1020006", "name": "北京西城廊房头条咖啡店", "address": {"city": "北京市", "streetAddressLine1": "西城区", "streetAddressLine2": "21号院1号楼1层01号铺位", "streetAddressLine3": "廊坊头条", "postalCode": "100000"}, "coordinates": {"latitude": 39.898546, "longitude": 116.396335}, "today": {"closeTime": "22:00:00", "openTime": "09:00:00"}, "features": ["OG", "DL", "MIC"], "hasArtwork": false, "storeNumber": "53299-284250"}, {"id": "1021369", "name": "北京市北京坊店", "address": {"city": "北京市", "streetAddressLine1": "北京市", "streetAddressLine2": "煤市街廊房头条13号院3号楼1F/2F/3F层", "streetAddressLine3": "西城区", "postalCode": "100000"}, "coordinates": {"latitude": 39.898, "longitude": 116.396913}, "today": {"closeTime": "23:00:00", "openTime": "08:00:00"}, "features": ["OG", "BE", "MIC", "NCB", "RC", "SBB"], "hasArtwork": false, "storeNumber": "53371-267088"}, {"id": "1785", "name": "北京王府井店", "address": {"city": "北京市", "streetAddressLine1": "东城区", "streetAddressLine2": "王府井百货大楼首层", "streetAddressLine3": "王府井大街253号", "postalCode": "100000"}, "coordinates": {"latitude": 39.913963, "longitude": 116.410352}, "today": {"closeTime": "22:00:00", "openTime": "10:00:00"}, "features": ["OG", "DL", "MIC"], "hasArtwork": false, "storeNumber": "5125-147992"}, {"id": "1011816", "name": "北京大栅栏店", "address": {"city": "北京市", "streetAddressLine1": "西城区", "streetAddressLine2": null, "streetAddressLine3": "大栅栏街道弓字胡同10号", "postalCode": "100051"}, "coordinates": {"latitude": 39.89781, "longitude": 116.394128}, "today": {"closeTime": "22:00:00", "openTime": "08:00:00"}, "features": ["OG", "DL", "MIC", "PO", "SBB"], "hasArtwork": true, "storeNumber": "27050-245004"}, {"id": "66112", "name": "北京新东安", "address": {"city": "北京市", "streetAddressLine1": "东城区", "streetAddressLine2": "新东安广场地下一层", "streetAddressLine3": "王府井大街138号", "postalCode": "100006"}, "coordinates": {"latitude": 39.915158, "longitude": 116.411977}, "today": {"closeTime": "22:00:00", "openTime": "09:00:00"}, "features": ["OG", "DL", "NCB"], "hasArtwork": false, "storeNumber": "15321-157784"}]}