{"meta": {"total": 327}, "data": [{"id": "1013002", "name": "北京金街咖啡店", "address": {"city": "北京市", "streetAddressLine1": "东城区", "streetAddressLine2": "新燕莎金街购物中心一层MF105-1、MF105-2商铺", "streetAddressLine3": "王府井大街301号", "postalCode": "100006"}, "coordinates": {"latitude": 39.909977, "longitude": 116.410369}, "today": {"closeTime": "22:00:00", "openTime": "08:00:00"}, "features": ["OG", "DL", "MIC", "PO"], "hasArtwork": false, "storeNumber": "28844-251204"}, {"id": "1545", "name": "北京东方广场西店", "address": {"city": "北京市", "streetAddressLine1": "东城区", "streetAddressLine2": "东方广场东方新天地商场地下一层", "streetAddressLine3": "东长安街1号", "postalCode": "100738"}, "coordinates": {"latitude": 39.90912, "longitude": 116.412216}, "today": {"closeTime": "22:00:00", "openTime": "07:00:00"}, "features": ["OG", "DL", "MIC"], "hasArtwork": false, "storeNumber": "34055-96031"}, {"id": "113953", "name": "北京东方广场三店", "address": {"city": "北京市", "streetAddressLine1": "东城区", "streetAddressLine2": "北京东方广场东方新天地商场平台层", "streetAddressLine3": "东长安街1号P-W1(08-10)号店铺", "postalCode": "100738"}, "coordinates": {"latitude": 39.909328, "longitude": 116.413}, "today": {"closeTime": "21:00:00", "openTime": "07:00:00"}, "features": ["OG", "DL", "NCB", "PO", "SBB"], "hasArtwork": false, "storeNumber": "18248-188765"}, {"id": "1019561", "name": "北京王府井第二咖啡店", "address": {"city": "北京市", "streetAddressLine1": "东城区", "streetAddressLine2": "269号院1号楼B1层-102号商铺", "streetAddressLine3": "王府井大街", "postalCode": null}, "coordinates": {"latitude": 39.912604, "longitude": 116.409834}, "today": {"closeTime": "22:00:00", "openTime": "10:00:00"}, "features": ["OG", "BE", "NCB", "RC", "SBB"], "hasArtwork": false, "storeNumber": "51159-268526"}, {"id": "1904", "name": "北京前门大街店", "address": {"city": "北京市", "streetAddressLine1": "崇文区", "streetAddressLine2": null, "streetAddressLine3": "前门大街1-1号", "postalCode": "100062"}, "coordinates": {"latitude": 39.898258, "longitude": 116.397803}, "today": {"closeTime": "22:00:00", "openTime": "08:30:00"}, "features": ["OG", "MIC"], "hasArtwork": false, "storeNumber": "3890-129025"}, {"id": "1020006", "name": "北京西城廊房头条咖啡店", "address": {"city": "北京市", "streetAddressLine1": "西城区", "streetAddressLine2": "21号院1号楼1层01号铺位", "streetAddressLine3": "廊坊头条", "postalCode": null}, "coordinates": {"latitude": 39.898546, "longitude": 116.396335}, "today": {"closeTime": "22:00:00", "openTime": "09:00:00"}, "features": ["OG", "DL", "MIC"], "hasArtwork": false, "storeNumber": "53299-284250"}, {"id": "1021369", "name": "北京市北京坊店", "address": {"city": "北京市", "streetAddressLine1": "北京市", "streetAddressLine2": "煤市街廊房头条13号院3号楼1F/2F/3F层", "streetAddressLine3": "西城区", "postalCode": "100051"}, "coordinates": {"latitude": 39.898, "longitude": 116.396913}, "today": {"closeTime": "23:00:00", "openTime": "08:00:00"}, "features": ["OG", "BE", "MIC", "NCB", "RC", "SBB"], "hasArtwork": false, "storeNumber": "53371-267088"}, {"id": "1785", "name": "北京王府井店", "address": {"city": "北京市", "streetAddressLine1": "东城区", "streetAddressLine2": "王府井百货大楼首层", "streetAddressLine3": "王府井大街253号", "postalCode": "100006"}, "coordinates": {"latitude": 39.913963, "longitude": 116.410352}, "today": {"closeTime": "22:00:00", "openTime": "10:00:00"}, "features": ["OG", "DL", "MIC"], "hasArtwork": false, "storeNumber": "5125-147992"}, {"id": "1011816", "name": "北京大栅栏店", "address": {"city": "北京市", "streetAddressLine1": "西城区", "streetAddressLine2": null, "streetAddressLine3": "大栅栏街道弓字胡同10号", "postalCode": "100051"}, "coordinates": {"latitude": 39.89781, "longitude": 116.394128}, "today": {"closeTime": "22:00:00", "openTime": "08:00:00"}, "features": ["OG", "DL", "MIC", "PO", "SBB"], "hasArtwork": true, "storeNumber": "27050-245004"}, {"id": "66112", "name": "北京新东安", "address": {"city": "北京市", "streetAddressLine1": "东城区", "streetAddressLine2": "新东安广场地下一层", "streetAddressLine3": "王府井大街138号", "postalCode": "100006"}, "coordinates": {"latitude": 39.915158, "longitude": 116.411977}, "today": {"closeTime": "22:00:00", "openTime": "09:00:00"}, "features": ["OG", "DL", "NCB"], "hasArtwork": false, "storeNumber": "15321-157784"}, {"id": "1025274", "name": "北京王府井in88店", "address": {"city": "北京市", "streetAddressLine1": "北京市东城区王府井大街88号1幢一层L1", "streetAddressLine2": null, "streetAddressLine3": "11单元", "postalCode": "100000"}, "coordinates": {"latitude": 39.915763, "longitude": 116.412392}, "today": {"closeTime": "22:00:00", "openTime": "07:00:00"}, "features": ["OG", "DL", "MIC"], "hasArtwork": false, "storeNumber": "57869-292005"}, {"id": "1764", "name": "北京新世界店", "address": {"city": "北京市", "streetAddressLine1": "崇文区", "streetAddressLine2": "新世界商场一期首层", "streetAddressLine3": "崇文门外大街3号", "postalCode": "100062"}, "coordinates": {"latitude": 39.897773, "longitude": 116.418268}, "today": {"closeTime": "22:00:00", "openTime": "07:00:00"}, "features": ["OG", "DL", "MIC"], "hasArtwork": false, "storeNumber": "34031-123184"}, {"id": "1012352", "name": "北京新世界商场二店", "address": {"city": "北京市", "streetAddressLine1": "东城区", "streetAddressLine2": "北京新世界商场青春馆地下1层010009B号", "streetAddressLine3": "崇文门外大街5号", "postalCode": null}, "coordinates": {"latitude": 39.896723, "longitude": 116.417602}, "today": {"closeTime": "22:00:00", "openTime": "10:00:00"}, "features": ["OG", "DL", "MIC"], "hasArtwork": false, "storeNumber": "28111-249293"}, {"id": "1006610", "name": "北京崇文门外第一咖啡店", "address": {"city": "北京市", "streetAddressLine1": "东城区", "streetAddressLine2": "国瑞城地下二层", "streetAddressLine3": "崇文门外大街18号", "postalCode": "100050"}, "coordinates": {"latitude": 39.898087, "longitude": 116.419802}, "today": {"closeTime": "22:00:00", "openTime": "10:00:00"}, "features": ["OG", "DL", "MIC"], "hasArtwork": false, "storeNumber": "17720-183646"}, {"id": "1011525", "name": "北京新闻大厦店", "address": {"city": "北京市", "streetAddressLine1": "东城区", "streetAddressLine2": "新闻大厦1层", "streetAddressLine3": "建内大街19号", "postalCode": null}, "coordinates": {"latitude": 39.907593, "longitude": 116.422147}, "today": {"closeTime": "21:00:00", "openTime": "08:00:00"}, "features": ["OG", "DL", "MIC"], "hasArtwork": false, "storeNumber": "26185-242824"}, {"id": "1009800", "name": "北京崇文门外第二咖啡店", "address": {"city": "北京市", "streetAddressLine1": "东城区", "streetAddressLine2": "搜秀城一层", "streetAddressLine3": "崇文门外大街40号", "postalCode": "100062"}, "coordinates": {"latitude": 39.896766, "longitude": 116.419232}, "today": {"closeTime": "21:00:00", "openTime": "08:00:00"}, "features": ["OG", "DL", "MIC"], "hasArtwork": false, "storeNumber": "24216-233689"}, {"id": "1024441", "name": "北京灯市口天客隆咖啡店", "address": {"city": "北京市", "streetAddressLine1": "北京市东城区灯市口大街33号天客隆一层", "streetAddressLine2": null, "streetAddressLine3": null, "postalCode": "100000"}, "coordinates": {"latitude": 39.918828, "longitude": 116.414381}, "today": {"closeTime": "19:00:00", "openTime": "07:00:00"}, "features": ["OG", "DL", "MIC"], "hasArtwork": false, "storeNumber": "57870-292004"}, {"id": "32170", "name": "北京东城区金宝大厦店", "address": {"city": "北京市", "streetAddressLine1": "东城区", "streetAddressLine2": "金宝大厦写字楼一层04商铺", "streetAddressLine3": "金宝街89号", "postalCode": "100005"}, "coordinates": {"latitude": 39.91615, "longitude": 116.419401}, "today": {"closeTime": "21:30:00", "openTime": "06:30:00"}, "features": ["OG", "DL", "MIC", "NCB"], "hasArtwork": false, "storeNumber": "8199-103104"}, {"id": "1016136", "name": "北京金宝汇店", "address": {"city": "北京市", "streetAddressLine1": "东城区", "streetAddressLine2": "金宝汇112号商铺一层", "streetAddressLine3": "金宝街88号", "postalCode": null}, "coordinates": {"latitude": 39.915339, "longitude": 116.421322}, "today": {"closeTime": "22:00:00", "openTime": "07:00:00"}, "features": ["OG", "DL", "MIC", "NCB", "RC", "SBB"], "hasArtwork": false, "storeNumber": "48253-261926"}, {"id": "1007589", "name": "北京站第一咖啡店", "address": {"city": "北京市", "streetAddressLine1": "东城区", "streetAddressLine2": "出发层", "streetAddressLine3": "北京火车站", "postalCode": "100005"}, "coordinates": {"latitude": 39.904031, "longitude": 116.427383}, "today": {"closeTime": "21:00:00", "openTime": "07:00:00"}, "features": ["OG"], "hasArtwork": false, "storeNumber": "22876-223364"}, {"id": "1014334", "name": "北京中粮广场店", "address": {"city": "北京市", "streetAddressLine1": "东城区", "streetAddressLine2": "北京中粮广场C座G130-132", "streetAddressLine3": "北京市东城区建国门内大街8号", "postalCode": null}, "coordinates": {"latitude": 39.907098, "longitude": 116.429323}, "today": {"closeTime": "20:00:00", "openTime": "07:00:00"}, "features": ["OG", "DL", "MIC", "NCB", "PO"], "hasArtwork": false, "storeNumber": "47556-258266"}, {"id": "89200", "name": "北京天坛东路店", "address": {"city": "北京市", "streetAddressLine1": "东城区", "streetAddressLine2": "迤北红桥市场一层", "streetAddressLine3": "天坛东路46号", "postalCode": "100101"}, "coordinates": {"latitude": 39.886679, "longitude": 116.420171}, "today": {"closeTime": "22:00:00", "openTime": "08:00:00"}, "features": ["OG", "DL", "MIC", "NCB"], "hasArtwork": false, "storeNumber": "17008-178526"}, {"id": "1571", "name": "北京西单汉光百货商场店", "address": {"city": "北京市", "streetAddressLine1": "西城区", "streetAddressLine2": "光百货一层101商铺", "streetAddressLine3": "西单北大街176号", "postalCode": "100032"}, "coordinates": {"latitude": 39.909225, "longitude": 116.375934}, "today": {"closeTime": "22:00:00", "openTime": "08:00:00"}, "features": ["OG", "DL", "MIC", "PO"], "hasArtwork": false, "storeNumber": "34004-95593"}, {"id": "1798", "name": "北京庄胜崇光店", "address": {"city": "北京市", "streetAddressLine1": "宣武区", "streetAddressLine2": "北京庄胜崇光百货新馆B1层", "streetAddressLine3": "宣武门外大街8号", "postalCode": "100052"}, "coordinates": {"latitude": 39.895895, "longitude": 116.375791}, "today": {"closeTime": "22:00:00", "openTime": "10:00:00"}, "features": ["OG", "DL"], "hasArtwork": false, "storeNumber": "31159-106069"}, {"id": "1020022", "name": "北京西单北大街第二店", "address": {"city": "北京市", "streetAddressLine1": "西城区", "streetAddressLine2": "西单君太百货二层", "streetAddressLine3": "西单北大街133号", "postalCode": null}, "coordinates": {"latitude": 39.910114, "longitude": 116.373017}, "today": {"closeTime": "22:00:00", "openTime": "10:00:00"}, "features": ["OG", "MIC", "NCB"], "hasArtwork": false, "storeNumber": "53494-285682"}, {"id": "1011643", "name": "北京西单大悦城二店", "address": {"city": "北京市", "streetAddressLine1": "西城区", "streetAddressLine2": "西单大悦城101-XZL号", "streetAddressLine3": "西单北大街131号", "postalCode": "100031"}, "coordinates": {"latitude": 39.910816, "longitude": 116.373069}, "today": {"closeTime": "22:00:00", "openTime": "08:00:00"}, "features": ["OG", "DL", "MIC", "NCB", "RC"], "hasArtwork": false, "storeNumber": "26566-243544"}, {"id": "1014399", "name": "北京西单北大街咖啡店", "address": {"city": "北京市", "streetAddressLine1": "西城区", "streetAddressLine2": "L2-2.23号", "streetAddressLine3": "西单北大街110号", "postalCode": "100032"}, "coordinates": {"latitude": 39.914294, "longitude": 116.374461}, "today": {"closeTime": "22:00:00", "openTime": "10:00:00"}, "features": ["OG"], "hasArtwork": false, "storeNumber": "47661-256627"}, {"id": "92819", "name": "北京宣武门外富卓大厦店", "address": {"city": "北京市", "streetAddressLine1": "西城区", "streetAddressLine2": "富卓大厦一层", "streetAddressLine3": "宣武门外大街28号", "postalCode": "100052"}, "coordinates": {"latitude": 39.894152, "longitude": 116.37504}, "today": {"closeTime": "21:00:00", "openTime": "08:00:00"}, "features": ["OG", "DL", "MIC"], "hasArtwork": false, "storeNumber": "17610-183884"}, {"id": "1019473", "name": "北京南竹杆第二咖啡店", "address": {"city": "北京市", "streetAddressLine1": "东城区", "streetAddressLine2": "地下1层1-123&1-126", "streetAddressLine3": "南竹杆胡同2号1幢", "postalCode": null}, "coordinates": {"latitude": 39.921092, "longitude": 116.433161}, "today": {"closeTime": "20:00:00", "openTime": "07:30:00"}, "features": ["OG", "DL", "MIC"], "hasArtwork": false, "storeNumber": "52154-280906"}, {"id": "1006473", "name": "北京朝阳门SOHO店", "address": {"city": "北京市", "streetAddressLine1": "东城区", "streetAddressLine2": "B-123号铺", "streetAddressLine3": "南竹杆胡同1号地下1层", "postalCode": "100010"}, "coordinates": {"latitude": 39.922809, "longitude": 116.433097}, "today": {"closeTime": "19:00:00", "openTime": "07:30:00"}, "features": ["OG", "DL"], "hasArtwork": false, "storeNumber": "21179-209444"}, {"id": "1921", "name": "北京新族大厦店", "address": {"city": "北京市", "streetAddressLine1": "朝阳区", "streetAddressLine2": "新族大厦首层1B", "streetAddressLine3": "日坛路6号", "postalCode": null}, "coordinates": {"latitude": 39.909587, "longitude": 116.441234}, "today": {"closeTime": "21:30:00", "openTime": "07:00:00"}, "features": ["OG", "DL", "MIC"], "hasArtwork": false, "storeNumber": "31156-105224"}, {"id": "19352", "name": "北京凯恒店", "address": {"city": "北京市", "streetAddressLine1": "东城区", "streetAddressLine2": null, "streetAddressLine3": "朝阳门内大街2号B座一层04单元", "postalCode": "100010"}, "coordinates": {"latitude": 39.923834, "longitude": 116.432368}, "today": {"closeTime": "20:30:00", "openTime": "07:30:00"}, "features": ["OG", "DL", "MIC", "NCB"], "hasArtwork": false, "storeNumber": "5019-154044"}, {"id": "19175", "name": "北京赛特购物中心店", "address": {"city": "北京市", "streetAddressLine1": "朝阳区", "streetAddressLine2": "赛特购物中心地下一层扶梯东侧", "streetAddressLine3": "建国门外大街22号", "postalCode": "100004"}, "coordinates": {"latitude": 39.90763, "longitude": 116.441725}, "today": {"closeTime": "21:00:00", "openTime": "10:00:00"}, "features": ["OG", "DL", "MIC"], "hasArtwork": false, "storeNumber": "3659-145613"}, {"id": "1011334", "name": "北京复兴门内店", "address": {"city": "北京市", "streetAddressLine1": "西城区", "streetAddressLine2": "凯晨世贸中心西大堂东南侧", "streetAddressLine3": "复兴门内大街28号", "postalCode": null}, "coordinates": {"latitude": 39.906221, "longitude": 116.364581}, "today": {"closeTime": "19:00:00", "openTime": "07:00:00"}, "features": ["OG", "DL", "MIC"], "hasArtwork": false, "storeNumber": "25690-241306"}, {"id": "1008571", "name": "北京朝外第二店", "address": {"city": "北京市", "streetAddressLine1": "朝阳区", "streetAddressLine2": "01层（01）101中119号", "streetAddressLine3": "三丰北里5号楼", "postalCode": "100020"}, "coordinates": {"latitude": 39.921851, "longitude": 116.43972}, "today": {"closeTime": "22:00:00", "openTime": "07:30:00"}, "features": ["OG", "DL", "PO"], "hasArtwork": false, "storeNumber": "23008-224464"}, {"id": "1012258", "name": "北京宝钢大厦店", "address": {"city": "北京市", "streetAddressLine1": "朝阳区", "streetAddressLine2": "宝钢大厦1层", "streetAddressLine3": "建国门外大街丙12号", "postalCode": "100022"}, "coordinates": {"latitude": 39.907829, "longitude": 116.446209}, "today": {"closeTime": "18:00:00", "openTime": "07:30:00"}, "features": ["OG", "DL"], "hasArtwork": false, "storeNumber": "25023-239564"}, {"id": "1021138", "name": "北京兴业银行咖啡店", "address": {"city": "北京市", "streetAddressLine1": "朝阳区", "streetAddressLine2": "101", "streetAddressLine3": "朝阳门北大街20号", "postalCode": "100000"}, "coordinates": {"latitude": 39.926162, "longitude": 116.436077}, "today": {"closeTime": "20:00:00", "openTime": "07:00:00"}, "features": ["OG", "DL", "MIC"], "hasArtwork": false, "storeNumber": "54262-286510"}, {"id": "19289", "name": "北京朝外悠唐店", "address": {"city": "北京市", "streetAddressLine1": "朝阳区", "streetAddressLine2": null, "streetAddressLine3": "三丰北里2号楼悠唐生活广场", "postalCode": "100020"}, "coordinates": {"latitude": 39.9221, "longitude": 116.440203}, "today": {"closeTime": "22:00:00", "openTime": "07:30:00"}, "features": ["OG", "DL", "MIC"], "hasArtwork": false, "storeNumber": "9170-152487"}, {"id": "1679", "name": "北京丰联广场店", "address": {"city": "北京市", "streetAddressLine1": "朝阳区", "streetAddressLine2": "丰联广场一层", "streetAddressLine3": "朝阳门外大街", "postalCode": "100020"}, "coordinates": {"latitude": 39.923942, "longitude": 116.438785}, "today": {"closeTime": "22:00:00", "openTime": "07:00:00"}, "features": ["OG", "DL", "MIC"], "hasArtwork": false, "storeNumber": "34005-12617"}, {"id": "91718", "name": "北京太平桥大街咖啡店", "address": {"city": "北京市", "streetAddressLine1": "西城区", "streetAddressLine2": "丰融国际203号", "streetAddressLine3": "太平桥大街18号", "postalCode": null}, "coordinates": {"latitude": 39.917151, "longitude": 116.36544}, "today": {"closeTime": "20:00:00", "openTime": "07:30:00"}, "features": ["OG", "DL", "MIC"], "hasArtwork": false, "storeNumber": "16442-169213"}, {"id": "19011", "name": "北京LG大厦店", "address": {"city": "北京市", "streetAddressLine1": "朝阳区", "streetAddressLine2": "北京双子座大厦首层L118", "streetAddressLine3": "建国门外大街乙12号", "postalCode": null}, "coordinates": {"latitude": 39.907418, "longitude": 116.449021}, "today": {"closeTime": "21:00:00", "openTime": "07:00:00"}, "features": ["OG", "DL", "MIC"], "hasArtwork": false, "storeNumber": "5130-147991"}, {"id": "1022406", "name": "北京秀水街店", "address": {"city": "北京市", "streetAddressLine1": "北京市朝阳区建国门外大街秀水东街8号（秀水大厦东侧）", "streetAddressLine2": null, "streetAddressLine3": null, "postalCode": "100000"}, "coordinates": {"latitude": 39.909649, "longitude": 116.449713}, "today": {"closeTime": "20:00:00", "openTime": "09:00:00"}, "features": ["OG", "DL", "NCB"], "hasArtwork": false, "storeNumber": "55771-289546"}, {"id": "91765", "name": "北京广渠门名敦道店", "address": {"city": "北京市", "streetAddressLine1": "东城区", "streetAddressLine2": null, "streetAddressLine3": "广渠家园3号楼1层", "postalCode": "100022"}, "coordinates": {"latitude": 39.893106, "longitude": 116.447576}, "today": {"closeTime": "21:30:00", "openTime": "07:30:00"}, "features": ["OG", "DL", "MIC"], "hasArtwork": false, "storeNumber": "18483-185651"}, {"id": "1658", "name": "北京西城远洋大厦店", "address": {"city": "北京市", "streetAddressLine1": "西城区", "streetAddressLine2": "远洋大厦首层G03A", "streetAddressLine3": "复兴门内大街158号", "postalCode": "100031"}, "coordinates": {"latitude": 39.905775, "longitude": 116.360094}, "today": {"closeTime": "20:30:00", "openTime": "07:30:00"}, "features": ["OG", "DL", "MIC"], "hasArtwork": false, "storeNumber": "31911-122926"}, {"id": "116322", "name": "北京南锣鼓巷咖啡店", "address": {"city": "北京市", "streetAddressLine1": "东城区", "streetAddressLine2": null, "streetAddressLine3": "南锣鼓巷20号", "postalCode": "100000"}, "coordinates": {"latitude": 39.940114, "longitude": 116.403305}, "today": {"closeTime": "22:00:00", "openTime": "08:30:00"}, "features": ["OG", "DL", "MIC"], "hasArtwork": false, "storeNumber": "18262-188689"}, {"id": "1006465", "name": "北京泰康国际大厦店", "address": {"city": "北京市", "streetAddressLine1": "西城区", "streetAddressLine2": "泰康大厦1层", "streetAddressLine3": "\"西城区金融街武定候街2号 \"", "postalCode": "100032"}, "coordinates": {"latitude": 39.917749, "longitude": 116.362571}, "today": {"closeTime": "20:00:00", "openTime": "07:00:00"}, "features": ["OG", "DL", "MIC"], "hasArtwork": false, "storeNumber": "20676-206948"}, {"id": "1588", "name": "北京金融街金树街店", "address": {"city": "北京市", "streetAddressLine1": "西城区", "streetAddressLine2": null, "streetAddressLine3": "金融街街公寓F座9-11号", "postalCode": "100032"}, "coordinates": {"latitude": 39.917295, "longitude": 116.361523}, "today": {"closeTime": "22:00:00", "openTime": "07:30:00"}, "features": ["OG", "DL", "MIC", "PO", "SBB"], "hasArtwork": false, "storeNumber": "31642-104797"}, {"id": "1729", "name": "北京百盛店", "address": {"city": "北京市", "streetAddressLine1": "西城区", "streetAddressLine2": "复兴门百盛商场二期一层", "streetAddressLine3": "复内大街101号", "postalCode": null}, "coordinates": {"latitude": 39.908753, "longitude": 116.358887}, "today": {"closeTime": "22:00:00", "openTime": "07:30:00"}, "features": ["OG", "DL", "MIC"], "hasArtwork": false, "storeNumber": "34011-20859"}, {"id": "1009677", "name": "北京芳草地大厦咖啡店", "address": {"city": "北京市", "streetAddressLine1": "朝阳区", "streetAddressLine2": "D座一层", "streetAddressLine3": "东大桥路9号", "postalCode": "100020"}, "coordinates": {"latitude": 39.919566, "longitude": 116.448677}, "today": {"closeTime": "21:00:00", "openTime": "07:30:00"}, "features": ["OG", "DL", "MIC"], "hasArtwork": false, "storeNumber": "24019-228966"}, {"id": "1616", "name": "北京世贸天阶店", "address": {"city": "北京市", "streetAddressLine1": "朝阳区", "streetAddressLine2": "世贸天阶中心A座一层L123号", "streetAddressLine3": "东大桥东侧路光华路9号", "postalCode": "100020"}, "coordinates": {"latitude": 39.916279, "longitude": 116.451225}, "today": {"closeTime": "22:00:00", "openTime": "07:30:00"}, "features": ["OG", "DL", "NCB", "RC"], "hasArtwork": false, "storeNumber": "31448-105226"}, {"id": "1006287", "name": "北京永定门咖啡店", "address": {"city": "北京市", "streetAddressLine1": "东城区", "streetAddressLine2": "中海地产广场101东塔02单元", "streetAddressLine3": "永定门西滨河路8号院7楼", "postalCode": "100028"}, "coordinates": {"latitude": 39.870005, "longitude": 116.389433}, "today": {"closeTime": "21:00:00", "openTime": "07:00:00"}, "features": ["OG", "DL", "MIC"], "hasArtwork": false, "storeNumber": "19609-200487"}, {"id": "1020866", "name": "北京光华路第二咖啡店", "address": {"city": "北京市", "streetAddressLine1": "朝阳区", "streetAddressLine2": "一层120室", "streetAddressLine3": "光华路9号楼", "postalCode": "100026"}, "coordinates": {"latitude": 39.91365, "longitude": 116.452419}, "today": {"closeTime": "20:30:00", "openTime": "07:30:00"}, "features": ["OG", "DL", "NCB"], "hasArtwork": false, "storeNumber": "53937-259224"}, {"id": "1640", "name": "北京新中街瑞士公寓店", "address": {"city": "北京市", "streetAddressLine1": "东城区", "streetAddressLine2": null, "streetAddressLine3": "新中街瑞士公寓1、2层L103&L202A", "postalCode": null}, "coordinates": {"latitude": 39.933309, "longitude": 116.436974}, "today": {"closeTime": "21:00:00", "openTime": "07:00:00"}, "features": ["OG", "DL", "MIC", "NCB"], "hasArtwork": false, "storeNumber": "32448-132307"}, {"id": "1019120", "name": "北京世贸天阶第二咖啡店", "address": {"city": "北京市", "streetAddressLine1": "朝阳区", "streetAddressLine2": "一号楼B1层，B152号", "streetAddressLine3": "光华路甲9号世贸天阶", "postalCode": "100020"}, "coordinates": {"latitude": 39.916819, "longitude": 116.451745}, "today": {"closeTime": "22:00:00", "openTime": "10:00:00"}, "features": ["OG", "DL", "MIC"], "hasArtwork": false, "storeNumber": "51338-278164"}, {"id": "1019507", "name": "北京护国寺街咖啡店", "address": {"city": "北京市", "streetAddressLine1": "西城区", "streetAddressLine2": "11号楼1层F1-3单元", "streetAddressLine3": "护国寺街85号", "postalCode": "100009"}, "coordinates": {"latitude": 39.935155, "longitude": 116.37529}, "today": {"closeTime": "21:00:00", "openTime": "08:00:00"}, "features": ["OG", "DL", "MIC"], "hasArtwork": false, "storeNumber": "52442-281833"}, {"id": "89622", "name": "北京金汇路世界城店", "address": {"city": "北京市", "streetAddressLine1": "朝阳区", "streetAddressLine2": "世界城商业街9号楼1层W111单元", "streetAddressLine3": "金汇路", "postalCode": "100020"}, "coordinates": {"latitude": 39.918009, "longitude": 116.451911}, "today": {"closeTime": "22:00:00", "openTime": "07:30:00"}, "features": ["OG", "DL", "MIC", "NCB"], "hasArtwork": false, "storeNumber": "16522-172365"}, {"id": "1015962", "name": "北京金融大街店", "address": {"city": "北京市", "streetAddressLine1": "西城区", "streetAddressLine2": "1层106-01单元", "streetAddressLine3": "金融大街9号楼", "postalCode": "100032"}, "coordinates": {"latitude": 39.919001, "longitude": 116.358995}, "today": {"closeTime": "20:00:00", "openTime": "07:30:00"}, "features": ["OG", "DL", "MIC", "PO"], "hasArtwork": false, "storeNumber": "48335-262709"}, {"id": "1832", "name": "北京英蓝国际店", "address": {"city": "北京市", "streetAddressLine1": "西城区", "streetAddressLine2": "英蓝国际金融中心首层F111-F112单元", "streetAddressLine3": "金融大街7号", "postalCode": "100034"}, "coordinates": {"latitude": 39.920131, "longitude": 116.358116}, "today": {"closeTime": "21:00:00", "openTime": "07:00:00"}, "features": ["OG", "DL", "MIC", "RC", "SBB"], "hasArtwork": false, "storeNumber": "31914-108612"}, {"id": "1008363", "name": "北京爱思开大厦店", "address": {"city": "北京市", "streetAddressLine1": "朝阳区", "streetAddressLine2": "SK大厦2层", "streetAddressLine3": "建国门外大街甲6号1幢", "postalCode": "100022"}, "coordinates": {"latitude": 39.907637, "longitude": 116.456808}, "today": {"closeTime": "20:00:00", "openTime": "07:00:00"}, "features": ["OG", "MIC"], "hasArtwork": false, "storeNumber": "22120-215444"}, {"id": "1007571", "name": "北京国华投资广场咖啡店", "address": {"city": "北京市", "streetAddressLine1": "北京市", "streetAddressLine2": "国华投资一层01单元", "streetAddressLine3": "东城区东直门南大街3号", "postalCode": "100007"}, "coordinates": {"latitude": 39.939206, "longitude": 116.432392}, "today": {"closeTime": "21:00:00", "openTime": "07:30:00"}, "features": ["OG", "DL"], "hasArtwork": false, "storeNumber": "22679-221307"}, {"id": "1680", "name": "北京建威大厦店", "address": {"city": "北京市", "streetAddressLine1": "西城区", "streetAddressLine2": "建威大厦一层", "streetAddressLine3": "南礼士路66号", "postalCode": "100045"}, "coordinates": {"latitude": 39.908573, "longitude": 116.353218}, "today": {"closeTime": "20:00:00", "openTime": "08:00:00"}, "features": ["OG", "DL"], "hasArtwork": false, "storeNumber": "34008-12025"}, {"id": "1014423", "name": "北京国贸四店", "address": {"city": "北京市", "streetAddressLine1": "朝阳区", "streetAddressLine2": "国际贸易中心商城地下一层SB126+SB127号铺位", "streetAddressLine3": "建国门外大街1号", "postalCode": null}, "coordinates": {"latitude": 39.909606, "longitude": 116.457565}, "today": {"closeTime": "21:30:00", "openTime": "07:00:00"}, "features": ["OG", "BE", "MIC", "NCB", "RC", "SBB"], "hasArtwork": true, "storeNumber": "47747-258504"}, {"id": "1018973", "name": "北京东直门南大街咖啡店", "address": {"city": "北京市", "streetAddressLine1": "东城区", "streetAddressLine2": "2层1-1202内P02-20商铺", "streetAddressLine3": "东直门南大街1号", "postalCode": null}, "coordinates": {"latitude": 39.940042, "longitude": 116.432629}, "today": {"closeTime": "22:00:00", "openTime": "08:00:00"}, "features": ["OG", "DL", "MIC", "NCB"], "hasArtwork": false, "storeNumber": "51392-277424"}, {"id": "1024461", "name": "北京金融街月坛中心店", "address": {"city": "北京市", "streetAddressLine1": "北京市西城区月坛南街1号院金融街月坛中心", "streetAddressLine2": null, "streetAddressLine3": "7号楼103商铺", "postalCode": "100000"}, "coordinates": {"latitude": 39.915056, "longitude": 116.353578}, "today": {"closeTime": "20:00:00", "openTime": "07:00:00"}, "features": ["OG", "DL", "MIC"], "hasArtwork": false, "storeNumber": "58666-292933"}, {"id": "1007517", "name": "北京复兴门外咖啡店", "address": {"city": "北京市", "streetAddressLine1": "西城区", "streetAddressLine2": "办公楼主楼首层大堂01号", "streetAddressLine3": "北京市西城区复兴门外大街A2号", "postalCode": "100045"}, "coordinates": {"latitude": 39.906906, "longitude": 116.351534}, "today": {"closeTime": "20:00:00", "openTime": "07:30:00"}, "features": ["OG", "DL", "MIC"], "hasArtwork": false, "storeNumber": "21825-213805"}, {"id": "1755", "name": "北京银泰店", "address": {"city": "北京市", "streetAddressLine1": "朝阳区", "streetAddressLine2": "银泰中心B1-B38&B39", "streetAddressLine3": "建国门外大街2号", "postalCode": "100022"}, "coordinates": {"latitude": 39.907636, "longitude": 116.459086}, "today": {"closeTime": "21:00:00", "openTime": "07:30:00"}, "features": ["OG", "DL", "MIC", "NCB", "RC"], "hasArtwork": false, "storeNumber": "1490-131667"}, {"id": "1925", "name": "北京建外现代城店", "address": {"city": "北京市", "streetAddressLine1": "朝阳区", "streetAddressLine2": "建外SOHO5号别墅01户", "streetAddressLine3": "东三环中路39号", "postalCode": "100022"}, "coordinates": {"latitude": 39.905323, "longitude": 116.459433}, "today": {"closeTime": "21:30:00", "openTime": "07:00:00"}, "features": ["OG", "DL", "MIC", "NCB"], "hasArtwork": false, "storeNumber": "34061-98309"}, {"id": "1005198", "name": "北京朝外大街咖啡店", "address": {"city": "北京市", "streetAddressLine1": "朝阳区", "streetAddressLine2": "一层2011,2012号商铺", "streetAddressLine3": "朝阳门外大街甲6号", "postalCode": "100001"}, "coordinates": {"latitude": 39.919817, "longitude": 116.456245}, "today": {"closeTime": "20:30:00", "openTime": "07:30:00"}, "features": ["OG", "DL", "MIC"], "hasArtwork": false, "storeNumber": "19330-200444"}, {"id": "1005181", "name": "北京国贸第三咖啡店", "address": {"city": "北京市", "streetAddressLine1": "朝阳区", "streetAddressLine2": "3号院二层3L215铺位", "streetAddressLine3": "建国门外大街1号楼", "postalCode": "100004"}, "coordinates": {"latitude": 39.912539, "longitude": 116.45906}, "today": {"closeTime": "21:00:00", "openTime": "07:00:00"}, "features": ["OG", "DL"], "hasArtwork": false, "storeNumber": "17671-198324"}, {"id": "1011818", "name": "北京方庄通润商务会馆店", "address": {"city": "北京市", "streetAddressLine1": "丰台区", "streetAddressLine2": "通润商务会馆A段1层2单元", "streetAddressLine3": "方庄芳古园一区28号楼", "postalCode": "1000078"}, "coordinates": {"latitude": 39.866118, "longitude": 116.425844}, "today": {"closeTime": "22:00:00", "openTime": "07:00:00"}, "features": ["OG", "DL", "MIC"], "hasArtwork": false, "storeNumber": "27052-246025"}, {"id": "1006655", "name": "北京东直门第一咖啡店", "address": {"city": "北京市", "streetAddressLine1": "东城区", "streetAddressLine2": "L3层23号商铺", "streetAddressLine3": "东直门48号银座广场", "postalCode": "100007"}, "coordinates": {"latitude": 39.940093, "longitude": 116.435343}, "today": {"closeTime": "22:00:00", "openTime": "08:00:00"}, "features": ["OG", "DL", "MIC"], "hasArtwork": false, "storeNumber": "20987-207545"}, {"id": "19078", "name": "北京财富购物中心店", "address": {"city": "北京市", "streetAddressLine1": "朝阳区", "streetAddressLine2": null, "streetAddressLine3": "东三环中路7号院7楼1-31号", "postalCode": "100020"}, "coordinates": {"latitude": 39.917756, "longitude": 116.457997}, "today": {"closeTime": "21:30:00", "openTime": "07:30:00"}, "features": ["OG", "DL", "MIC", "NCB"], "hasArtwork": false, "storeNumber": "7079-150284"}, {"id": "1005816", "name": "北京嘉里中心第二咖啡店", "address": {"city": "北京市", "streetAddressLine1": "朝阳区", "streetAddressLine2": "北京嘉里中心商场一层111号，2层204号", "streetAddressLine3": "建国门外大街 光华路1号", "postalCode": "100026"}, "coordinates": {"latitude": 39.913732, "longitude": 116.459819}, "today": {"closeTime": "22:00:00", "openTime": "07:00:00"}, "features": ["OG", "NCB", "RC", "SBB"], "hasArtwork": true, "storeNumber": "19196-184984"}, {"id": "1013832", "name": "北京市国贸第二咖啡店", "address": {"city": "北京市", "streetAddressLine1": "北京市朝阳区建国门外大街国贸写字楼2座二层的CL2001 铺位", "streetAddressLine2": null, "streetAddressLine3": null, "postalCode": null}, "coordinates": {"latitude": 39.910979, "longitude": 116.460447}, "today": {"closeTime": "21:30:00", "openTime": "07:30:00"}, "features": ["OG", "MIC", "NCB", "PO"], "hasArtwork": false, "storeNumber": "29727-251888"}, {"id": "1021215", "name": "北京东三环中路咖啡店", "address": {"city": "北京市", "streetAddressLine1": "朝阳区", "streetAddressLine2": "63号一层148单元", "streetAddressLine3": "东三环中路", "postalCode": null}, "coordinates": {"latitude": 39.897015, "longitude": 116.460591}, "today": {"closeTime": "20:30:00", "openTime": "07:30:00"}, "features": ["OG", "DL"], "hasArtwork": false, "storeNumber": "54071-286314"}, {"id": "90299", "name": "北京环球金融中心店", "address": {"city": "北京市", "streetAddressLine1": "朝阳区", "streetAddressLine2": "环球金融中心首层W102", "streetAddressLine3": "东三环中路一号", "postalCode": "100052"}, "coordinates": {"latitude": 39.918761, "longitude": 116.458865}, "today": {"closeTime": "20:00:00", "openTime": "07:00:00"}, "features": ["OG", "DL", "MIC"], "hasArtwork": false, "storeNumber": "17164-178525"}, {"id": "1022598", "name": "北京财富中心4店", "address": {"city": "北京市", "streetAddressLine1": "北京市朝阳区东三环中路7号3号楼2层", "streetAddressLine2": null, "streetAddressLine3": "3号楼2层E202", "postalCode": "100000"}, "coordinates": {"latitude": 39.915828, "longitude": 116.460066}, "today": {"closeTime": "21:00:00", "openTime": "07:00:00"}, "features": ["OG", "NCB", "PO", "SBB"], "hasArtwork": false, "storeNumber": "56229-290172"}, {"id": "1017279", "name": "北京南站七店", "address": {"city": "北京市", "streetAddressLine1": "永定门外大街", "streetAddressLine2": "西侧G010商铺南侧位置的单元", "streetAddressLine3": "北京南站交通枢纽出发层", "postalCode": null}, "coordinates": {"latitude": 39.865873, "longitude": 116.380337}, "today": {}, "features": ["OG", "NCB"], "hasArtwork": false, "storeNumber": "50389-274525"}, {"id": "1007803", "name": "北京东三环南路店", "address": {"city": "北京市", "streetAddressLine1": "北京市", "streetAddressLine2": "佳龙大厦101", "streetAddressLine3": "朝阳区东三环南路1号", "postalCode": "100022"}, "coordinates": {"latitude": 39.89307, "longitude": 116.4601}, "today": {"closeTime": "22:00:00", "openTime": "07:30:00"}, "features": ["OG", "DL", "MIC"], "hasArtwork": false, "storeNumber": "22053-215745"}, {"id": "1638", "name": "北京富力家园店", "address": {"city": "北京市", "streetAddressLine1": "朝阳区", "streetAddressLine2": "富力大厦1层101", "streetAddressLine3": "东三环中路63号(双井桥西北侧)", "postalCode": "100022"}, "coordinates": {"latitude": 39.895287, "longitude": 116.460933}, "today": {"closeTime": "22:00:00", "openTime": "07:30:00"}, "features": ["OG", "DL", "MIC", "NCB", "RC", "SBB"], "hasArtwork": false, "storeNumber": "32547-130345"}, {"id": "116359", "name": "北京南站第三咖啡店", "address": {"city": "北京市", "streetAddressLine1": "丰台区", "streetAddressLine2": "东北角，M与1/M轴之间、2-9与2-10轴之间", "streetAddressLine3": "北京南站换乘层地铁四号线围栏外", "postalCode": null}, "coordinates": {"latitude": 39.865269, "longitude": 116.379309}, "today": {"closeTime": "22:00:00", "openTime": "07:00:00"}, "features": ["OG"], "hasArtwork": false, "storeNumber": "18866-196264"}, {"id": "1009054", "name": "北京财富中心三店", "address": {"city": "北京市", "streetAddressLine1": "朝阳区", "streetAddressLine2": "北京财富金融中心B1层", "streetAddressLine3": "东三环中路5号楼", "postalCode": "100026"}, "coordinates": {"latitude": 39.917462, "longitude": 116.460896}, "today": {"closeTime": "20:30:00", "openTime": "07:00:00"}, "features": ["OG", "DL", "MIC", "PO"], "hasArtwork": false, "storeNumber": "23506-228967"}, {"id": "1021132", "name": "北京京汇大厦店", "address": {"city": "北京市", "streetAddressLine1": "朝阳区建国路乙118号1-105号单元", "streetAddressLine2": null, "streetAddressLine3": null, "postalCode": "100000"}, "coordinates": {"latitude": 39.906867, "longitude": 116.463325}, "today": {"closeTime": "21:00:00", "openTime": "07:30:00"}, "features": ["OG", "DL", "MIC", "NCB"], "hasArtwork": false, "storeNumber": "54002-286254"}, {"id": "113987", "name": "北京南站第二咖啡店", "address": {"city": "北京市", "streetAddressLine1": "丰台区", "streetAddressLine2": "换乘层中区商业面向地铁南口西侧", "streetAddressLine3": "北京南站", "postalCode": "100054"}, "coordinates": {"latitude": 39.8649, "longitude": 116.379428}, "today": {"closeTime": "22:00:00", "openTime": "07:00:00"}, "features": ["OG", "MIC"], "hasArtwork": false, "storeNumber": "18612-193490"}, {"id": "1007410", "name": "北京南站第五咖啡店", "address": {"city": "北京市", "streetAddressLine1": "丰台区", "streetAddressLine2": "北进口内测东部通道区域地上一层的单元", "streetAddressLine3": "北京南站", "postalCode": "100054"}, "coordinates": {"latitude": 39.865387, "longitude": 116.377957}, "today": {"closeTime": "22:00:00", "openTime": "07:00:00"}, "features": ["OG", "MIC", "NCB"], "hasArtwork": false, "storeNumber": "22168-217204"}, {"id": "113384", "name": "北京南站第一咖啡店", "address": {"city": "北京市", "streetAddressLine1": "丰台区", "streetAddressLine2": "北京南站首层", "streetAddressLine3": "永定门外大街", "postalCode": "100054"}, "coordinates": {"latitude": 39.864975, "longitude": 116.378584}, "today": {"closeTime": "22:00:00", "openTime": "06:00:00"}, "features": ["OG"], "hasArtwork": false, "storeNumber": "16212-169524"}, {"id": "1006506", "name": "北京南站第六咖啡店", "address": {"city": "北京市", "streetAddressLine1": "丰台区", "streetAddressLine2": "换乘层7号出站口北侧区域的单元", "streetAddressLine3": "北京南站", "postalCode": "100054"}, "coordinates": {"latitude": 39.864301, "longitude": 116.379917}, "today": {"closeTime": "22:00:00", "openTime": "07:00:00"}, "features": ["OG", "MIC"], "hasArtwork": false, "storeNumber": "22167-217205"}, {"id": "1005666", "name": "北京中海国际大厦咖啡店", "address": {"city": "北京市", "streetAddressLine1": "西城区", "streetAddressLine2": "中海国际大厦28号楼 1层6-7单元", "streetAddressLine3": "西大街107号", "postalCode": "100034"}, "coordinates": {"latitude": 39.931858, "longitude": 116.357667}, "today": {"closeTime": "21:00:00", "openTime": "07:30:00"}, "features": ["OG", "DL", "MIC"], "hasArtwork": false, "storeNumber": "19575-198985"}, {"id": "1009680", "name": "北京雍和大厦店", "address": {"city": "北京市", "streetAddressLine1": "东城区", "streetAddressLine2": "雍和大厦东楼1层", "streetAddressLine3": "安定门东大街28号", "postalCode": "100007"}, "coordinates": {"latitude": 39.948797, "longitude": 116.421049}, "today": {"closeTime": "22:00:00", "openTime": "07:30:00"}, "features": ["OG", "DL", "MIC"], "hasArtwork": false, "storeNumber": "24022-233444"}, {"id": "116576", "name": "北京呼家楼咖啡店", "address": {"city": "北京市", "streetAddressLine1": "朝阳区", "streetAddressLine2": "京广商务中心1层", "streetAddressLine3": "呼家楼1号", "postalCode": "100020"}, "coordinates": {"latitude": 39.92078, "longitude": 116.460877}, "today": {"closeTime": "21:00:00", "openTime": "07:00:00"}, "features": ["OG", "DL"], "hasArtwork": false, "storeNumber": "17101-179645"}, {"id": "1013336", "name": "北京万博苑咖啡店", "address": {"city": "北京市", "streetAddressLine1": "西城区", "streetAddressLine2": null, "streetAddressLine3": "万博苑7号楼1层", "postalCode": null}, "coordinates": {"latitude": 39.872015, "longitude": 116.364455}, "today": {"closeTime": "22:00:00", "openTime": "08:30:00"}, "features": ["OG", "DL", "MIC", "PO"], "hasArtwork": false, "storeNumber": "29143-250926"}, {"id": "1022076", "name": "北京乐成中心店", "address": {"city": "北京市", "streetAddressLine1": "朝阳区东三环中路22号一层", "streetAddressLine2": null, "streetAddressLine3": null, "postalCode": "100000"}, "coordinates": {"latitude": 39.894117, "longitude": 116.462876}, "today": {"closeTime": "22:00:00", "openTime": "07:30:00"}, "features": ["OG", "DL", "MIC"], "hasArtwork": false, "storeNumber": "54469-286694"}, {"id": "1024370", "name": "北京百荣世贸商城店", "address": {"city": "北京市", "streetAddressLine1": "北京市东城区永定门外大街101号", "streetAddressLine2": null, "streetAddressLine3": null, "postalCode": "100000"}, "coordinates": {"latitude": 39.859764, "longitude": 116.397239}, "today": {"closeTime": "22:00:00", "openTime": "07:30:00"}, "features": ["OG", "DL"], "hasArtwork": false, "storeNumber": "57833-291947"}, {"id": "1011843", "name": "北京建国路第二咖啡店", "address": {"city": "北京市", "streetAddressLine1": "朝阳区", "streetAddressLine2": "一层B", "streetAddressLine3": "北京建国路112号", "postalCode": "100022"}, "coordinates": {"latitude": 39.907576, "longitude": 116.464758}, "today": {"closeTime": "19:30:00", "openTime": "07:30:00"}, "features": ["OG", "DL", "MIC"], "hasArtwork": false, "storeNumber": "27227-246131"}, {"id": "69914", "name": "北京工体北路店", "address": {"city": "北京市", "streetAddressLine1": "朝阳区", "streetAddressLine2": "北京世茂百货F1层E103", "streetAddressLine3": "工人体育场北路13号", "postalCode": null}, "coordinates": {"latitude": 39.935576, "longitude": 116.449851}, "today": {"closeTime": "22:00:00", "openTime": "07:30:00"}, "features": ["OG", "DL", "MIC"], "hasArtwork": false, "storeNumber": "16064-167346"}, {"id": "1010063", "name": "北京工体北路第二咖啡店", "address": {"city": "北京市", "streetAddressLine1": "朝阳区", "streetAddressLine2": "8号院1号楼1层1118", "streetAddressLine3": "工人体育场北路", "postalCode": "100027"}, "coordinates": {"latitude": 39.932949, "longitude": 116.453248}, "today": {"closeTime": "21:00:00", "openTime": "07:00:00"}, "features": ["OG", "DL", "MIC"], "hasArtwork": false, "storeNumber": "24537-237825"}, {"id": "1015702", "name": "北京三里河东路店", "address": {"city": "北京市", "streetAddressLine1": "西城区", "streetAddressLine2": "长安商场1层", "streetAddressLine3": "复兴门大街15号", "postalCode": null}, "coordinates": {"latitude": 39.907983, "longitude": 116.345117}, "today": {"closeTime": "22:00:00", "openTime": "09:00:00"}, "features": ["OG", "MIC"], "hasArtwork": false, "storeNumber": "48429-260004"}, {"id": "1022683", "name": "北京中粮置地广场店", "address": {"city": "北京市", "streetAddressLine1": "东城区安定门外大街208号中粮置地广场高", "streetAddressLine2": null, "streetAddressLine3": "塔1层1F-08商铺", "postalCode": "100000"}, "coordinates": {"latitude": 39.951583, "longitude": 116.408568}, "today": {"closeTime": "20:00:00", "openTime": "08:00:00"}, "features": ["OG", "DL", "MIC", "NCB", "PO", "SBB"], "hasArtwork": false, "storeNumber": "55148-286292"}, {"id": "1018317", "name": "北京东三环北路第三店", "address": {"city": "北京市", "streetAddressLine1": "朝阳区", "streetAddressLine2": "1号楼1层101内7室", "streetAddressLine3": "东三环北路38 号院", "postalCode": "100026"}, "coordinates": {"latitude": 39.920566, "longitude": 116.463535}, "today": {"closeTime": "20:00:00", "openTime": "07:00:00"}, "features": ["OG", "DL", "MIC", "PO"], "hasArtwork": false, "storeNumber": "48432-263266"}, {"id": "1006149", "name": "北京三里屯店", "address": {"city": "北京市", "streetAddressLine1": "朝阳区", "streetAddressLine2": "10号楼10-10&10-20", "streetAddressLine3": "三里屯路19号院", "postalCode": "100027"}, "coordinates": {"latitude": 39.934245, "longitude": 116.454761}, "today": {"closeTime": "00:00:00", "openTime": "07:00:00"}, "features": ["OG", "MIC", "NCB"], "hasArtwork": false, "storeNumber": "32548-217264"}, {"id": "1010046", "name": "北京东三环北店", "address": {"city": "北京市", "streetAddressLine1": "朝阳区", "streetAddressLine2": "嘉铭中心大厦A座B1层024商铺", "streetAddressLine3": "东三环北路27号", "postalCode": null}, "coordinates": {"latitude": 39.928067, "longitude": 116.460748}, "today": {"closeTime": "21:00:00", "openTime": "07:00:00"}, "features": ["OG", "DL"], "hasArtwork": false, "storeNumber": "24520-237564"}, {"id": "1006654", "name": "北京嘉盛SOHO中心店", "address": {"city": "北京市", "streetAddressLine1": "朝阳区", "streetAddressLine2": "嘉盛中心首层西侧大堂", "streetAddressLine3": "东三环北路甲19 号", "postalCode": "100027"}, "coordinates": {"latitude": 39.928827, "longitude": 116.460741}, "today": {"closeTime": null, "openTime": null}, "features": ["OG", "MIC"], "hasArtwork": false, "storeNumber": "20985-206565"}, {"id": "1013427", "name": "北京盈科中心第二咖啡店", "address": {"city": "北京市", "streetAddressLine1": "朝阳区", "streetAddressLine2": "单元及02层202A、203A单元", "streetAddressLine3": "工人体育场北路甲2号裙房01层103A", "postalCode": null}, "coordinates": {"latitude": 39.933201, "longitude": 116.458569}, "today": {"closeTime": "21:00:00", "openTime": "07:00:00"}, "features": ["OG", "DL", "PO"], "hasArtwork": false, "storeNumber": "29194-248125"}, {"id": "20178", "name": "北京三里屯北区店", "address": {"city": "北京市", "streetAddressLine1": "朝阳区", "streetAddressLine2": null, "streetAddressLine3": "三里屯路11号院地下一层NLG-32a单元", "postalCode": "100027"}, "coordinates": {"latitude": 39.937909, "longitude": 116.454872}, "today": {"closeTime": "22:00:00", "openTime": "07:30:00"}, "features": ["OG", "DL", "MIC", "NCB", "RC", "SBB"], "hasArtwork": true, "storeNumber": "15047-157223"}, {"id": "1760", "name": "北京世茂大厦店", "address": {"city": "北京市", "streetAddressLine1": "朝阳区", "streetAddressLine2": null, "streetAddressLine3": "建国路甲92号北京世茂大厦首层102#单元", "postalCode": "100025"}, "coordinates": {"latitude": 39.907744, "longitude": 116.470869}, "today": {"closeTime": "21:00:00", "openTime": "07:00:00"}, "features": ["OG", "DL", "MIC"], "hasArtwork": false, "storeNumber": "32354-130324"}, {"id": "1005334", "name": "北京紫芳园咖啡店", "address": {"city": "北京市", "streetAddressLine1": "丰台区", "streetAddressLine2": "7号商铺", "streetAddressLine3": "方庄紫芳园四区3号楼", "postalCode": "100164"}, "coordinates": {"latitude": 39.86196, "longitude": 116.439554}, "today": {"closeTime": "22:00:00", "openTime": "07:00:00"}, "features": ["OG", "DL", "MIC"], "hasArtwork": false, "storeNumber": "19930-202711"}, {"id": "20123", "name": "北京万达广场2店", "address": {"city": "北京市", "streetAddressLine1": "朝阳区", "streetAddressLine2": "万达广场B座3层", "streetAddressLine3": "建国路93号", "postalCode": "100022"}, "coordinates": {"latitude": 39.909294, "longitude": 116.471144}, "today": {"closeTime": "22:00:00", "openTime": "09:00:00"}, "features": ["OG", "DL", "MIC"], "hasArtwork": false, "storeNumber": "9023-151727"}, {"id": "1019791", "name": "北京光华路咖啡店", "address": {"city": "北京市", "streetAddressLine1": "朝阳区", "streetAddressLine2": "亿利生态广场一层106", "streetAddressLine3": "光华路15号院1号楼", "postalCode": null}, "coordinates": {"latitude": 39.914272, "longitude": 116.471389}, "today": {"closeTime": "00:00:00", "openTime": "00:00:00"}, "features": ["OG", "DL", "MIC"], "hasArtwork": false, "storeNumber": "53282-284244"}, {"id": "1006033", "name": "北京朗琴国际大厦咖啡店", "address": {"city": "北京市", "streetAddressLine1": "西城区", "streetAddressLine2": "天虹百货商场1层101-1号", "streetAddressLine3": "广安门外大街168号", "postalCode": "100055"}, "coordinates": {"latitude": 39.889007, "longitude": 116.341225}, "today": {"closeTime": "22:00:00", "openTime": "07:30:00"}, "features": ["OG", "DL", "MIC"], "hasArtwork": false, "storeNumber": "20201-204084"}, {"id": "1657", "name": "北京万达广场店", "address": {"city": "北京市", "streetAddressLine1": "朝阳区", "streetAddressLine2": "新世界彩旋百货首层", "streetAddressLine3": "建国路93号院A座万达广场东区", "postalCode": "100031"}, "coordinates": {"latitude": 39.909288, "longitude": 116.472896}, "today": {"closeTime": "21:00:00", "openTime": "07:00:00"}, "features": ["OG", "DL", "MIC"], "hasArtwork": false, "storeNumber": "31912-121764"}, {"id": "1017010", "name": "北京金地中心店", "address": {"city": "北京市", "streetAddressLine1": "朝阳区", "streetAddressLine2": "金地中心L2层L201店铺", "streetAddressLine3": "建国路91号", "postalCode": null}, "coordinates": {"latitude": 39.909261, "longitude": 116.474451}, "today": {"closeTime": "22:00:00", "openTime": "08:00:00"}, "features": ["OG", "DL", "MIC", "PO"], "hasArtwork": false, "storeNumber": "48749-258006"}, {"id": "87425", "name": "北京西环广场2期店", "address": {"city": "北京市", "streetAddressLine1": "西城区", "streetAddressLine2": "西区B1-45/47A号", "streetAddressLine3": "西直门外大街1号", "postalCode": "100044"}, "coordinates": {"latitude": 39.941137, "longitude": 116.353121}, "today": {"closeTime": "22:00:00", "openTime": "08:00:00"}, "features": ["OG", "DL", "MIC", "NCB"], "hasArtwork": false, "storeNumber": "16541-172765"}, {"id": "1006495", "name": "北京建国路咖啡店", "address": {"city": "北京市", "streetAddressLine1": "朝阳区", "streetAddressLine2": "SOHO 现代城801 单元地上一层及二层", "streetAddressLine3": "建国路88 号", "postalCode": null}, "coordinates": {"latitude": 39.907632, "longitude": 116.475864}, "today": {"closeTime": "21:00:00", "openTime": "07:00:00"}, "features": ["OG", "DL", "MIC"], "hasArtwork": false, "storeNumber": "21824-214265"}, {"id": "1015963", "name": "北京德外大街咖啡店", "address": {"city": "北京市", "streetAddressLine1": "西城区", "streetAddressLine2": "1层102号", "streetAddressLine3": "德胜门外大街83号", "postalCode": "100088"}, "coordinates": {"latitude": 39.955194, "longitude": 116.37838}, "today": {"closeTime": "20:00:00", "openTime": "07:30:00"}, "features": ["OG", "DL", "MIC"], "hasArtwork": false, "storeNumber": "48336-262708"}, {"id": "1018536", "name": "北京西直门外大街咖啡店", "address": {"city": "北京市", "streetAddressLine1": "西城区", "streetAddressLine2": "2单元101-07", "streetAddressLine3": "西直门外大街18号楼", "postalCode": "100044"}, "coordinates": {"latitude": 39.939144, "longitude": 116.349163}, "today": {"closeTime": "19:30:00", "openTime": "07:30:00"}, "features": ["OG", "DL", "MIC"], "hasArtwork": false, "storeNumber": "50594-275008"}, {"id": "90284", "name": "北京西大望路温特莱店", "address": {"city": "北京市", "streetAddressLine1": "朝阳区", "streetAddressLine2": "温特莱中心一层", "streetAddressLine3": "西大望路1号", "postalCode": "100026"}, "coordinates": {"latitude": 39.912826, "longitude": 116.476703}, "today": {"closeTime": "21:00:00", "openTime": "07:00:00"}, "features": ["OG", "DL", "MIC", "PO", "SBB"], "hasArtwork": false, "storeNumber": "17064-178986"}, {"id": "1011442", "name": "北京西大望路第一店", "address": {"city": "北京市", "streetAddressLine1": "朝阳区", "streetAddressLine2": "4号楼商业1（01层）内01号", "streetAddressLine3": "西大望路15号", "postalCode": null}, "coordinates": {"latitude": 39.893798, "longitude": 116.476876}, "today": {"closeTime": "21:00:00", "openTime": "07:00:00"}, "features": ["OG", "DL", "MIC"], "hasArtwork": false, "storeNumber": "26021-242178"}, {"id": "1009435", "name": "北京成寿寺路咖啡店", "address": {"city": "北京市", "streetAddressLine1": "丰台区", "streetAddressLine2": "阳光新生活广场一层A129", "streetAddressLine3": "南三环东路成寿寺路2号", "postalCode": null}, "coordinates": {"latitude": 39.857524, "longitude": 116.447095}, "today": {"closeTime": "22:00:00", "openTime": "10:00:00"}, "features": ["OG", "DL", "MIC"], "hasArtwork": false, "storeNumber": "23797-230630"}, {"id": "115366", "name": "北京华贸店", "address": {"city": "北京市", "streetAddressLine1": "北京市朝阳区", "streetAddressLine2": "二层L217及L218单元", "streetAddressLine3": "建国路79号", "postalCode": "100025"}, "coordinates": {"latitude": 39.909494, "longitude": 116.480214}, "today": {"closeTime": "21:00:00", "openTime": "07:30:00"}, "features": ["OG", "DL", "MIC"], "hasArtwork": false, "storeNumber": "32134-197484"}, {"id": "1020958", "name": "北京西铁营咖啡店", "address": {"city": "北京市", "streetAddressLine1": "丰台区", "streetAddressLine2": null, "streetAddressLine3": "西铁营村7号", "postalCode": null}, "coordinates": {"latitude": 39.860206, "longitude": 116.357789}, "today": {"closeTime": "22:00:00", "openTime": "09:00:00"}, "features": ["OG", "DL", "PO"], "hasArtwork": false, "storeNumber": "53642-285879"}, {"id": "1025785", "name": "北京高和蓝峰大厦咖啡店", "address": {"city": "北京市", "streetAddressLine1": "北京市朝阳区东三环南路98号1幢1层10", "streetAddressLine2": null, "streetAddressLine3": "5号", "postalCode": "100000"}, "coordinates": {"latitude": 39.8655, "longitude": 116.461655}, "today": {"closeTime": "19:00:00", "openTime": "08:00:00"}, "features": ["OG", "MIC"], "hasArtwork": false, "storeNumber": "59676-293932"}, {"id": "1011839", "name": "北京华贸二店", "address": {"city": "北京市", "streetAddressLine1": "朝阳区", "streetAddressLine2": "北京华贸19号楼一层102单元", "streetAddressLine3": "建国路89号院", "postalCode": "100005"}, "coordinates": {"latitude": 39.911673, "longitude": 116.481369}, "today": {"closeTime": "21:00:00", "openTime": "07:00:00"}, "features": ["OG", "DL", "MIC", "PO"], "hasArtwork": false, "storeNumber": "27223-246605"}, {"id": "1661", "name": "北京亮马河大厦店", "address": {"city": "北京市", "streetAddressLine1": "朝阳区", "streetAddressLine2": "亮马大厦一层", "streetAddressLine3": "东三环北路8号", "postalCode": null}, "coordinates": {"latitude": 39.945885, "longitude": 116.463715}, "today": {"closeTime": "20:00:00", "openTime": "07:00:00"}, "features": ["OG", "DL"], "hasArtwork": false, "storeNumber": "34025-28976"}, {"id": "1008549", "name": "北京新源南路咖啡店", "address": {"city": "北京市", "streetAddressLine1": "朝阳区", "streetAddressLine2": "1至4层101内-1层B18单元", "streetAddressLine3": "新源南路1号", "postalCode": "100027"}, "coordinates": {"latitude": 39.949548, "longitude": 116.459728}, "today": {"closeTime": "21:00:00", "openTime": "08:00:00"}, "features": ["OG", "DL", "MIC", "NCB"], "hasArtwork": false, "storeNumber": "22906-224166"}, {"id": "116321", "name": "北京枫蓝国际中心店", "address": {"city": "北京市", "streetAddressLine1": "海淀区", "streetAddressLine2": "1号楼一层106-2", "streetAddressLine3": "西直门北大街32号院", "postalCode": "100088"}, "coordinates": {"latitude": 39.952985, "longitude": 116.355971}, "today": {"closeTime": "22:00:00", "openTime": "07:30:00"}, "features": ["OG", "DL", "MIC"], "hasArtwork": false, "storeNumber": "18251-187224"}, {"id": "19005", "name": "北京国展天虹店", "address": {"city": "北京市", "streetAddressLine1": "朝阳区", "streetAddressLine2": null, "streetAddressLine3": "左家庄北里58号楼一层1037号", "postalCode": "100028"}, "coordinates": {"latitude": 39.95912, "longitude": 116.442312}, "today": {"closeTime": "21:30:00", "openTime": "07:30:00"}, "features": ["OG", "DL", "MIC"], "hasArtwork": false, "storeNumber": "9163-152484"}, {"id": "87637", "name": "北京大红门西路店", "address": {"city": "北京市", "streetAddressLine1": "丰台区", "streetAddressLine2": "商业楼首层L1-01单元", "streetAddressLine3": "大红门西路26号11号", "postalCode": "100006"}, "coordinates": {"latitude": 39.84493, "longitude": 116.385726}, "today": {"closeTime": "22:00:00", "openTime": "08:00:00"}, "features": ["OG", "DL", "MIC"], "hasArtwork": false, "storeNumber": "16489-170993"}, {"id": "19201", "name": "北京环球贸易中心店", "address": {"city": "北京市", "streetAddressLine1": "东城区", "streetAddressLine2": null, "streetAddressLine3": "北三环东路36号2号楼C-05单元", "postalCode": "100013"}, "coordinates": {"latitude": 39.967534, "longitude": 116.410213}, "today": {"closeTime": "21:00:00", "openTime": "07:00:00"}, "features": ["OG", "DL", "MIC"], "hasArtwork": false, "storeNumber": "8899-151726"}, {"id": "69534", "name": "北京安贞环贸2店", "address": {"city": "北京市", "streetAddressLine1": "东城区", "streetAddressLine2": null, "streetAddressLine3": "北三环东路36号1号楼A座首层02单元", "postalCode": "100013"}, "coordinates": {"latitude": 39.968581, "longitude": 116.410274}, "today": {}, "features": ["OG"], "hasArtwork": false, "storeNumber": "15386-159384"}, {"id": "1011516", "name": "北京东方东路二店", "address": {"city": "北京市", "streetAddressLine1": "朝阳区", "streetAddressLine2": "外交办公大楼1层F110&2层F213", "streetAddressLine3": "东方东路19号", "postalCode": null}, "coordinates": {"latitude": 39.950536, "longitude": 116.463732}, "today": {"closeTime": "21:00:00", "openTime": "07:00:00"}, "features": ["OG", "DL", "RC"], "hasArtwork": false, "storeNumber": "26144-243484"}, {"id": "1006614", "name": "北京羊坊店路咖啡店", "address": {"city": "北京市", "streetAddressLine1": "光耀东方广场一层103单元", "streetAddressLine2": "海淀区", "streetAddressLine3": "羊坊店路18号", "postalCode": "100038"}, "coordinates": {"latitude": 39.899672, "longitude": 116.321604}, "today": {"closeTime": "22:00:00", "openTime": "07:30:00"}, "features": ["OG", "DL", "MIC"], "hasArtwork": false, "storeNumber": "18602-193488"}, {"id": "1623", "name": "北京东方东路外交公寓店", "address": {"city": "北京市", "streetAddressLine1": "朝阳区", "streetAddressLine2": null, "streetAddressLine3": "东方东路19号外交公寓A座会所2号商铺", "postalCode": "100600"}, "coordinates": {"latitude": 39.951836, "longitude": 116.464142}, "today": {"closeTime": "21:00:00", "openTime": "07:00:00"}, "features": ["OG", "DL", "MIC", "NCB"], "hasArtwork": false, "storeNumber": "32449-130325"}, {"id": "1021999", "name": "北京石榴中心店", "address": {"city": "北京市", "streetAddressLine1": "北京市丰台区榴乡路88号院24号楼1层1", "streetAddressLine2": null, "streetAddressLine3": "1层102", "postalCode": null}, "coordinates": {"latitude": 39.841217, "longitude": 116.422241}, "today": {"closeTime": "22:00:00", "openTime": "08:00:00"}, "features": ["OG", "DL", "MIC"], "hasArtwork": false, "storeNumber": "54240-286503"}, {"id": "1007595", "name": "北京西站第一咖啡店", "address": {"city": "北京市", "streetAddressLine1": "丰台区", "streetAddressLine2": "北京西站通廊7-1号", "streetAddressLine3": "莲花池路18号", "postalCode": "100073"}, "coordinates": {"latitude": 39.896099, "longitude": 116.320952}, "today": {"closeTime": "22:00:00", "openTime": "07:00:00"}, "features": ["OG"], "hasArtwork": false, "storeNumber": "22901-225145"}, {"id": "18846", "name": "北京霞光里店", "address": {"city": "北京市", "streetAddressLine1": "北京市朝阳区", "streetAddressLine2": "佳程广场平台层", "streetAddressLine3": "东三环北路霞光里18号", "postalCode": "100027"}, "coordinates": {"latitude": 39.956752, "longitude": 116.457811}, "today": {"closeTime": "19:30:00", "openTime": "07:00:00"}, "features": ["OG", "DL", "MIC", "NCB"], "hasArtwork": false, "storeNumber": "1706-144224"}, {"id": "1654", "name": "北京远洋天地店", "address": {"city": "北京市", "streetAddressLine1": "朝阳区", "streetAddressLine2": "远洋国际中心A座首层109号单元", "streetAddressLine3": "东四环中路56号", "postalCode": "100025"}, "coordinates": {"latitude": 39.914295, "longitude": 116.49083}, "today": {"closeTime": "21:30:00", "openTime": "07:00:00"}, "features": ["OG", "DL", "MIC", "NCB"], "hasArtwork": false, "storeNumber": "31915-116538"}, {"id": "1018446", "name": "北京远洋未来汇影院店", "address": {"city": "北京市", "streetAddressLine1": "北京市朝阳区慈云寺北里209号楼", "streetAddressLine2": null, "streetAddressLine3": "远洋未来汇购物中心2楼", "postalCode": null}, "coordinates": {"latitude": 39.916036, "longitude": 116.491553}, "today": {"closeTime": "22:00:00", "openTime": "10:00:00"}, "features": ["OG", "DL", "MIC"], "hasArtwork": false, "storeNumber": "51218-277368"}, {"id": "1739", "name": "北京燕莎奥特莱斯店", "address": {"city": "北京市", "streetAddressLine1": "朝阳区", "streetAddressLine2": "燕莎奥特莱斯购物中心二期C座一层1018#", "streetAddressLine3": "东四环南路9号", "postalCode": "100022"}, "coordinates": {"latitude": 39.877677, "longitude": 116.485767}, "today": {"closeTime": "22:00:00", "openTime": "08:30:00"}, "features": ["OG", "DL"], "hasArtwork": false, "storeNumber": "32112-125387"}, {"id": "1012243", "name": "北京霄云路二店", "address": {"city": "北京市", "streetAddressLine1": "朝阳区", "streetAddressLine2": "现代汽车大厦一层", "streetAddressLine3": "霄云路38号", "postalCode": "100027"}, "coordinates": {"latitude": 39.956175, "longitude": 116.462804}, "today": {"closeTime": "20:00:00", "openTime": "07:00:00"}, "features": ["OG", "DL", "PO"], "hasArtwork": false, "storeNumber": "27783-247966"}, {"id": "1007808", "name": "北京首体南路咖啡店", "address": {"city": "北京市", "streetAddressLine1": "海淀区", "streetAddressLine2": "地上一层大堂B/C轴与22/25轴之间", "streetAddressLine3": "首体南路9号10楼等11幢之第四幢", "postalCode": "100044"}, "coordinates": {"latitude": 39.934035, "longitude": 116.324726}, "today": {"closeTime": "21:00:00", "openTime": "07:30:00"}, "features": ["OG", "DL", "MIC"], "hasArtwork": false, "storeNumber": "22587-221306"}, {"id": "1731", "name": "北京国航大厦店", "address": {"city": "北京市", "streetAddressLine1": "朝阳区", "streetAddressLine2": "国航大厦一层", "streetAddressLine3": "霄云路36号", "postalCode": "100022"}, "coordinates": {"latitude": 39.956819, "longitude": 116.463617}, "today": {"closeTime": "20:00:00", "openTime": "07:00:00"}, "features": ["OG", "DL"], "hasArtwork": false, "storeNumber": "34035-84502"}, {"id": "1897", "name": "北京蓝色港湾圣拉娜店", "address": {"city": "北京市", "streetAddressLine1": "朝阳区朝阳公园路6号", "streetAddressLine2": "二层C1-3单元及二层阳台", "streetAddressLine3": "蓝色港湾国际商区1座C1-3单元首层、", "postalCode": "100020"}, "coordinates": {"latitude": 39.94924, "longitude": 116.473731}, "today": {"closeTime": "22:30:00", "openTime": "07:30:00"}, "features": ["OG", "DL", "MIC"], "hasArtwork": false, "storeNumber": "32447-132306"}, {"id": "1005161", "name": "北京腾达大厦咖啡店", "address": {"city": "北京市", "streetAddressLine1": "海淀区", "streetAddressLine2": "腾达大厦2层210号", "streetAddressLine3": "西直门外大街168号", "postalCode": "100044"}, "coordinates": {"latitude": 39.938195, "longitude": 116.326528}, "today": {"closeTime": "20:00:00", "openTime": "07:30:00"}, "features": ["OG"], "hasArtwork": false, "storeNumber": "19062-198288"}, {"id": "1016990", "name": "北京北太平庄路咖啡店", "address": {"city": "北京市", "streetAddressLine1": "海淀区", "streetAddressLine2": "(-04)中A座01层102室和A座02层210室", "streetAddressLine3": "北太平庄路18号27", "postalCode": null}, "coordinates": {"latitude": 39.969017, "longitude": 116.371006}, "today": {"closeTime": "19:30:00", "openTime": "07:30:00"}, "features": ["OG", "DL", "MIC", "NCB"], "hasArtwork": false, "storeNumber": "48333-262705"}, {"id": "1007376", "name": "北京曙光西里咖啡店", "address": {"city": "北京市", "streetAddressLine1": "朝阳区", "streetAddressLine2": "10号楼-17-1层17", "streetAddressLine3": "曙光西里甲5号院", "postalCode": "100000"}, "coordinates": {"latitude": 39.963111, "longitude": 116.455997}, "today": {}, "features": ["OG"], "hasArtwork": false, "storeNumber": "19389-201844"}, {"id": "94947", "name": "北京蓝色港湾第二咖啡店", "address": {"city": "北京市", "streetAddressLine1": "朝阳区", "streetAddressLine2": null, "streetAddressLine3": "朝阳公园6号11号楼", "postalCode": null}, "coordinates": {"latitude": 39.948809, "longitude": 116.476398}, "today": {"closeTime": "21:00:00", "openTime": "08:30:00"}, "features": ["OG", "MIC", "PO"], "hasArtwork": false, "storeNumber": "16180-169212"}, {"id": "1007400", "name": "北京七圣中街咖啡店", "address": {"city": "北京市", "streetAddressLine1": "朝阳区", "streetAddressLine2": "爱琴海购物中心一层101内F1007", "streetAddressLine3": "七圣中街12号院2号楼", "postalCode": null}, "coordinates": {"latitude": 39.971416, "longitude": 116.436204}, "today": {"closeTime": "22:00:00", "openTime": "07:30:00"}, "features": ["OG", "DL", "MIC"], "hasArtwork": false, "storeNumber": "21488-211984"}, {"id": "1014400", "name": "北京润世中心店", "address": {"city": "北京市", "streetAddressLine1": "北京市朝阳区天泽路16号院1号楼一层星巴克", "streetAddressLine2": null, "streetAddressLine3": null, "postalCode": null}, "coordinates": {"latitude": 39.955373, "longitude": 116.471626}, "today": {"closeTime": "19:00:00", "openTime": "08:00:00"}, "features": ["OG", "DL", "MIC"], "hasArtwork": false, "storeNumber": "47662-258005"}, {"id": "1010306", "name": "北京公益西桥咖啡店", "address": {"city": "北京市", "streetAddressLine1": "丰台区", "streetAddressLine2": "1层1105", "streetAddressLine3": "马家堡路华冠天地", "postalCode": "100068"}, "coordinates": {"latitude": 39.83632, "longitude": 116.378336}, "today": {"closeTime": "22:00:00", "openTime": "07:30:00"}, "features": ["OG", "DL", "MIC"], "hasArtwork": false, "storeNumber": "24681-238187"}, {"id": "1006464", "name": "北京霄云路咖啡店", "address": {"city": "北京市", "streetAddressLine1": "朝阳区", "streetAddressLine2": "酒店一层", "streetAddressLine3": "霄云路甲26号", "postalCode": "100026"}, "coordinates": {"latitude": 39.959888, "longitude": 116.467185}, "today": {"closeTime": "20:00:00", "openTime": "07:00:00"}, "features": ["OG", "DL", "MIC"], "hasArtwork": false, "storeNumber": "20675-206949"}, {"id": "1020977", "name": "北京安定路咖啡店", "address": {"city": "北京市", "streetAddressLine1": "朝阳区", "streetAddressLine2": "L104-1号", "streetAddressLine3": "安定路5号院6号楼", "postalCode": "100029"}, "coordinates": {"latitude": 39.977578, "longitude": 116.406796}, "today": {"closeTime": "21:00:00", "openTime": "07:30:00"}, "features": ["OG", "DL", "MIC", "NCB", "RC"], "hasArtwork": false, "storeNumber": "53941-286123"}, {"id": "1006096", "name": "北京太阳宫中路第二店", "address": {"city": "北京市", "streetAddressLine1": "朝阳区", "streetAddressLine2": "大堂第一层", "streetAddressLine3": "太阳宫中路12号", "postalCode": "100028"}, "coordinates": {"latitude": 39.97091, "longitude": 116.447771}, "today": {"closeTime": "19:00:00", "openTime": "07:30:00"}, "features": ["OG", "DL"], "hasArtwork": false, "storeNumber": "17044-178987"}, {"id": "91312", "name": "北京太阳宫凯德嘉茂店", "address": {"city": "北京市", "streetAddressLine1": "朝阳区", "streetAddressLine2": "太阳宫凯德嘉茂一层01-44/45号", "streetAddressLine3": "太阳宫中路12号", "postalCode": "100028"}, "coordinates": {"latitude": 39.97136, "longitude": 116.446819}, "today": {"closeTime": "22:00:00", "openTime": "08:00:00"}, "features": ["OG", "DL", "MIC", "NCB", "PO"], "hasArtwork": false, "storeNumber": "17477-161286"}, {"id": "1022114", "name": "北京学院南路店", "address": {"city": "北京市", "streetAddressLine1": "海淀学院南路62号院", "streetAddressLine2": null, "streetAddressLine3": null, "postalCode": "100000"}, "coordinates": {"latitude": 39.957365, "longitude": 116.337723}, "today": {"closeTime": "20:00:00", "openTime": "08:00:00"}, "features": ["OG", "DL", "MIC"], "hasArtwork": false, "storeNumber": "54408-286670"}, {"id": "1022631", "name": "北京世东国际店", "address": {"city": "北京市", "streetAddressLine1": "北京市朝阳区广渠路18号世东国际1号楼1层105-106单元", "streetAddressLine2": null, "streetAddressLine3": null, "postalCode": "100000"}, "coordinates": {"latitude": 39.891976, "longitude": 116.501188}, "today": {"closeTime": "20:00:00", "openTime": "07:30:00"}, "features": ["OG", "DL", "MIC"], "hasArtwork": false, "storeNumber": "54328-285846"}, {"id": "1022178", "name": "北京万科时代广场店", "address": {"city": "北京市", "streetAddressLine1": "北京朝阳路十里堡甲3号院甲1号楼", "streetAddressLine2": null, "streetAddressLine3": "1层星巴克", "postalCode": null}, "coordinates": {"latitude": 39.915415, "longitude": 116.503078}, "today": {"closeTime": "22:00:00", "openTime": "08:00:00"}, "features": ["OG", "DL", "MIC", "PO"], "hasArtwork": false, "storeNumber": "53907-281375"}, {"id": "19334", "name": "北京京顺路咖啡店", "address": {"city": "北京市", "streetAddressLine1": "朝阳区", "streetAddressLine2": "比如世界京顺路店首层05号", "streetAddressLine3": "京顺路111号", "postalCode": "100028"}, "coordinates": {"latitude": 39.967764, "longitude": 116.461796}, "today": {"closeTime": "21:00:00", "openTime": "07:30:00"}, "features": ["OG", "DL", "MIC"], "hasArtwork": false, "storeNumber": "3829-153480"}, {"id": "1012123", "name": "北京翠微广场店", "address": {"city": "北京市", "streetAddressLine1": "海淀区", "streetAddressLine2": "翠微广场购物中心地上一层110号商铺", "streetAddressLine3": "复兴路29号", "postalCode": "100161"}, "coordinates": {"latitude": 39.908361, "longitude": 116.305127}, "today": {"closeTime": "21:30:00", "openTime": "10:00:00"}, "features": ["OG", "DL", "MIC"], "hasArtwork": false, "storeNumber": "27616-247647"}, {"id": "1024379", "name": "北京十里堡盒马店", "address": {"city": "北京市", "streetAddressLine1": "朝阳区朝阳路十里堡乙2号院新城市广场", "streetAddressLine2": null, "streetAddressLine3": "B1层L-010号", "postalCode": "100000"}, "coordinates": {"latitude": 39.915258, "longitude": 116.504989}, "today": {"closeTime": "22:00:00", "openTime": "08:00:00"}, "features": ["OG", "MIC"], "hasArtwork": false, "storeNumber": "58745-293013"}, {"id": "1007580", "name": "北京中关村南大街咖啡店", "address": {"city": "北京市", "streetAddressLine1": "海淀区", "streetAddressLine2": "北京国际大厦一层C座01-101单元", "streetAddressLine3": "中关村南大街18号", "postalCode": "100044"}, "coordinates": {"latitude": 39.953637, "longitude": 116.324667}, "today": {"closeTime": "20:30:00", "openTime": "08:00:00"}, "features": ["OG", "DL", "MIC"], "hasArtwork": false, "storeNumber": "22758-223829"}, {"id": "1011416", "name": "北京翠微路咖啡店", "address": {"city": "北京市", "streetAddressLine1": "海淀区", "streetAddressLine2": "101-06/44/K12B号", "streetAddressLine3": "翠微路12号01层", "postalCode": null}, "coordinates": {"latitude": 39.9126, "longitude": 116.303204}, "today": {"closeTime": "22:00:00", "openTime": "08:30:00"}, "features": ["OG", "DL", "MIC"], "hasArtwork": false, "storeNumber": "24831-238787"}, {"id": "1007820", "name": "北京复兴路咖啡店", "address": {"city": "北京市", "streetAddressLine1": "海淀区", "streetAddressLine2": "凯德精品商场1层西侧", "streetAddressLine3": "复兴路51号", "postalCode": "100036"}, "coordinates": {"latitude": 39.908172, "longitude": 116.296797}, "today": {"closeTime": "22:00:00", "openTime": "08:30:00"}, "features": ["OG", "DL", "MIC"], "hasArtwork": false, "storeNumber": "23076-227184"}, {"id": "1008466", "name": "北京惠新东街咖啡店", "address": {"city": "北京市", "streetAddressLine1": "惠新东街4号", "streetAddressLine2": null, "streetAddressLine3": "惠新东街钱柜一层", "postalCode": "100029"}, "coordinates": {"latitude": 39.987389, "longitude": 116.424586}, "today": {"closeTime": "21:30:00", "openTime": "07:00:00"}, "features": ["OG", "DL", "MIC"], "hasArtwork": false, "storeNumber": "22585-219967"}, {"id": "1015960", "name": "北京亚运村华堂店", "address": {"city": "北京市", "streetAddressLine1": "北京市朝阳区北四环东路108号千鹤家园5号楼1层F1-1001单元", "streetAddressLine2": null, "streetAddressLine3": null, "postalCode": "100000"}, "coordinates": {"latitude": 39.98819, "longitude": 116.421131}, "today": {"closeTime": "22:00:00", "openTime": "08:00:00"}, "features": ["OG", "DL", "MIC"], "hasArtwork": false, "storeNumber": "48272-262430"}, {"id": "1016884", "name": "北京丽泽桥恒泰咖啡店", "address": {"city": "北京市", "streetAddressLine1": "丰台区", "streetAddressLine2": "恒泰广场一层L1-19-20", "streetAddressLine3": "丰台北路18号院", "postalCode": null}, "coordinates": {"latitude": 39.866251, "longitude": 116.306758}, "today": {"closeTime": "22:00:00", "openTime": "07:00:00"}, "features": ["OG", "DL", "MIC", "PO"], "hasArtwork": false, "storeNumber": "48938-265751"}, {"id": "1011960", "name": "北京北四环东路Ⅱ店", "address": {"city": "北京市", "streetAddressLine1": "朝阳区", "streetAddressLine2": "四元桥家乐福1层1-36a单元", "streetAddressLine3": "北四环东路9号", "postalCode": null}, "coordinates": {"latitude": 39.97846, "longitude": 116.461543}, "today": {"closeTime": "21:00:00", "openTime": "08:00:00"}, "features": ["OG", "DL"], "hasArtwork": false, "storeNumber": "25194-238716"}, {"id": "1012041", "name": "北京万丰路咖啡店", "address": {"city": "北京市", "streetAddressLine1": "丰台区", "streetAddressLine2": "万丰路68号和谐广场一层", "streetAddressLine3": "莲宝中路西侧", "postalCode": "100161"}, "coordinates": {"latitude": 39.881758, "longitude": 116.298326}, "today": {"closeTime": "21:30:00", "openTime": "08:00:00"}, "features": ["OG", "DL", "MIC", "PO"], "hasArtwork": false, "storeNumber": "27408-243964"}, {"id": "1025302", "name": "北京大学医学部产业楼店", "address": {"city": "北京市", "streetAddressLine1": "北京市海淀区学院路38号", "streetAddressLine2": null, "streetAddressLine3": "十一区22幢一层A01号", "postalCode": "100000"}, "coordinates": {"latitude": 39.981806, "longitude": 116.35663}, "today": {"closeTime": "21:00:00", "openTime": "08:00:00"}, "features": ["OG", "DL", "MIC"], "hasArtwork": false, "storeNumber": "58798-293067"}, {"id": "1007775", "name": "北京北辰东路第三咖啡店", "address": {"city": "北京市", "streetAddressLine1": "朝阳区", "streetAddressLine2": "1号楼一层108单元", "streetAddressLine3": "北辰东路8号院", "postalCode": "100029"}, "coordinates": {"latitude": 39.990994, "longitude": 116.40668}, "today": {"closeTime": "20:00:00", "openTime": "07:30:00"}, "features": ["OG", "DL"], "hasArtwork": false, "storeNumber": "23303-226085"}, {"id": "62912", "name": "北京北辰东路店", "address": {"city": "北京市", "streetAddressLine1": "朝阳区", "streetAddressLine2": null, "streetAddressLine3": "北辰东路8号1号楼B07", "postalCode": "100101"}, "coordinates": {"latitude": 39.991411, "longitude": 116.406761}, "today": {}, "features": ["OG"], "hasArtwork": false, "storeNumber": "6092-149244"}, {"id": "1753", "name": "北京华宇时尚店", "address": {"city": "北京市", "streetAddressLine1": "海淀区", "streetAddressLine2": "数码大厦B座华宇时尚购物中心内", "streetAddressLine3": "中关村南大街2号", "postalCode": "100086"}, "coordinates": {"latitude": 39.965279, "longitude": 116.323023}, "today": {"closeTime": "22:00:00", "openTime": "07:00:00"}, "features": ["OG", "DL", "MIC", "NCB", "PO", "SBB"], "hasArtwork": false, "storeNumber": "32320-116537"}, {"id": "1021268", "name": "北京久敬庄路咖啡店", "address": {"city": "北京市", "streetAddressLine1": "北京市大兴区旧宫镇久敬庄路临1号", "streetAddressLine2": null, "streetAddressLine3": null, "postalCode": "100000"}, "coordinates": {"latitude": 39.81867, "longitude": 116.423463}, "today": {"closeTime": "22:00:00", "openTime": "10:00:00"}, "features": ["OG", "DL", "MIC", "PO"], "hasArtwork": false, "storeNumber": "53531-285711"}, {"id": "113957", "name": "北京北四环东路咖啡店", "address": {"city": "北京市", "streetAddressLine1": "朝阳区", "streetAddressLine2": "远洋未来广场一层31单元", "streetAddressLine3": "北四环东路73号", "postalCode": "100025"}, "coordinates": {"latitude": 39.990365, "longitude": 116.432425}, "today": {"closeTime": "22:00:00", "openTime": "09:00:00"}, "features": ["OG", "DL", "MIC", "NCB"], "hasArtwork": false, "storeNumber": "18490-185007"}, {"id": "19004", "name": "北京朝阳大悦城店", "address": {"city": "北京市", "streetAddressLine1": "朝阳区", "streetAddressLine2": null, "streetAddressLine3": "朝阳北路101号楼L1-02号", "postalCode": null}, "coordinates": {"latitude": 39.924031, "longitude": 116.517756}, "today": {"closeTime": "22:00:00", "openTime": "08:00:00"}, "features": ["OG", "DL", "MIC"], "hasArtwork": false, "storeNumber": "9161-151369"}, {"id": "1011381", "name": "北京青年路三店", "address": {"city": "北京市", "streetAddressLine1": "朝阳区", "streetAddressLine2": "北京朝阳大悦8层", "streetAddressLine3": "朝阳北路101号楼", "postalCode": null}, "coordinates": {"latitude": 39.925377, "longitude": 116.517701}, "today": {"closeTime": "22:00:00", "openTime": "10:00:00"}, "features": ["OG", "MIC"], "hasArtwork": false, "storeNumber": "25809-241445"}, {"id": "1011834", "name": "北京青年路第二咖啡店", "address": {"city": "北京市", "streetAddressLine1": "朝阳区", "streetAddressLine2": "101号楼5层5F-48", "streetAddressLine3": "朝阳北路", "postalCode": null}, "coordinates": {"latitude": 39.924261, "longitude": 116.518456}, "today": {"closeTime": "22:00:00", "openTime": "10:00:00"}, "features": ["OG", "DL", "MIC"], "hasArtwork": false, "storeNumber": "25748-240504"}, {"id": "1007776", "name": "北京北辰东路第二咖啡店", "address": {"city": "北京市", "streetAddressLine1": "朝阳区", "streetAddressLine2": "16号楼一层101单元", "streetAddressLine3": "北辰东路8号院", "postalCode": "100029"}, "coordinates": {"latitude": 39.994616, "longitude": 116.405049}, "today": {"closeTime": "18:00:00", "openTime": "07:30:00"}, "features": ["OG", "DL"], "hasArtwork": false, "storeNumber": "23304-226084"}, {"id": "1668", "name": "北京丽都店", "address": {"city": "北京市", "streetAddressLine1": "朝阳区", "streetAddressLine2": null, "streetAddressLine3": "将台路丽都广场丽都商厦首层", "postalCode": "100004"}, "coordinates": {"latitude": 39.977077, "longitude": 116.478955}, "today": {"closeTime": "21:30:00", "openTime": "07:00:00"}, "features": ["OG", "DL", "MIC", "NCB", "PO"], "hasArtwork": false, "storeNumber": "34009-15773"}, {"id": "1020391", "name": "北京颐堤港中心第二店", "address": {"city": "北京市", "streetAddressLine1": "朝阳区", "streetAddressLine2": "颐堤港商场LG层36&38号", "streetAddressLine3": "酒仙桥路18号", "postalCode": null}, "coordinates": {"latitude": 39.969473, "longitude": 116.491822}, "today": {"closeTime": "22:00:00", "openTime": "07:30:00"}, "features": ["OG", "BE", "DL", "MIC", "NCB", "RC", "SBB"], "hasArtwork": false, "storeNumber": "52361-281379"}, {"id": "1022855", "name": "北京市飘亮阳光广场店", "address": {"city": "北京市", "streetAddressLine1": "北京市朝阳区安立路68号飘亮广场星巴克", "streetAddressLine2": null, "streetAddressLine3": null, "postalCode": "100000"}, "coordinates": {"latitude": 39.997667, "longitude": 116.408528}, "today": {"closeTime": "22:00:00", "openTime": "08:00:00"}, "features": ["OG", "DL", "MIC"], "hasArtwork": false, "storeNumber": "55938-289819"}, {"id": "1006108", "name": "北京颐堤港中心咖啡店", "address": {"city": "北京市", "streetAddressLine1": "朝阳区", "streetAddressLine2": "颐堤港商场L1-72号", "streetAddressLine3": "酒仙桥路18号", "postalCode": "100016"}, "coordinates": {"latitude": 39.970114, "longitude": 116.491995}, "today": {"closeTime": "22:00:00", "openTime": "07:00:00"}, "features": ["OG", "DL", "MIC"], "hasArtwork": false, "storeNumber": "19931-202765"}, {"id": "1950", "name": "北京海润店", "address": {"city": "北京市", "streetAddressLine1": "朝阳区", "streetAddressLine2": "海润国际公寓底商1层", "streetAddressLine3": "机场辅路将台路甲2号", "postalCode": "100102"}, "coordinates": {"latitude": 39.976404, "longitude": 116.483227}, "today": {"closeTime": "21:30:00", "openTime": "07:30:00"}, "features": ["OG", "DL", "MIC"], "hasArtwork": false, "storeNumber": "31830-113084"}, {"id": "1016949", "name": "北京槐房西路店", "address": {"city": "北京市", "streetAddressLine1": "丰台区", "streetAddressLine2": "槐房万达广场一层1083号", "streetAddressLine3": "槐房南路6号院", "postalCode": null}, "coordinates": {"latitude": 39.816173, "longitude": 116.367069}, "today": {"closeTime": "22:00:00", "openTime": "08:00:00"}, "features": ["OG", "DL", "MIC", "PO"], "hasArtwork": false, "storeNumber": "49958-271925"}, {"id": "1012063", "name": "北京丰北路咖啡店", "address": {"city": "北京市", "streetAddressLine1": "丰台区", "streetAddressLine2": "华堂商场1层1-001单元", "streetAddressLine3": "丰北路甲79号楼", "postalCode": null}, "coordinates": {"latitude": 39.866748, "longitude": 116.293753}, "today": {"closeTime": "22:00:00", "openTime": "08:00:00"}, "features": ["OG", "DL", "MIC"], "hasArtwork": false, "storeNumber": "27475-247364"}, {"id": "1021937", "name": "北京湖景东路咖啡店", "address": {"city": "北京市", "streetAddressLine1": "朝阳区", "streetAddressLine2": "2座-1（-1）内b1-05", "streetAddressLine3": "湖景东路9；11号", "postalCode": null}, "coordinates": {"latitude": 39.998454, "longitude": 116.393058}, "today": {"closeTime": "22:00:00", "openTime": "10:00:00"}, "features": ["OG", "DL", "MIC", "NCB", "PO"], "hasArtwork": false, "storeNumber": "54039-286218"}, {"id": "87021", "name": "北京北辰西路店", "address": {"city": "北京市", "streetAddressLine1": "朝阳区", "streetAddressLine2": "北辰世纪中心首层109单元", "streetAddressLine3": "北辰西路8号院3号楼B座", "postalCode": "100101"}, "coordinates": {"latitude": 39.999271, "longitude": 116.387898}, "today": {"closeTime": "21:00:00", "openTime": "07:30:00"}, "features": ["OG", "DL", "MIC"], "hasArtwork": false, "storeNumber": "16083-167624"}, {"id": "1016159", "name": "北京酒仙桥路咖啡店", "address": {"city": "北京市", "streetAddressLine1": "朝阳区", "streetAddressLine2": "乐天玛特超市1层LJ02-50单元", "streetAddressLine3": "酒仙桥路12号", "postalCode": null}, "coordinates": {"latitude": 39.975669, "longitude": 116.490458}, "today": {}, "features": ["OG", "DL"], "hasArtwork": false, "storeNumber": "48635-258004"}, {"id": "1019641", "name": "北京望京西路店", "address": {"city": "北京市", "streetAddressLine1": "朝阳区", "streetAddressLine2": "地上一层1-03和1-06", "streetAddressLine3": "望京西路41号", "postalCode": "100102"}, "coordinates": {"latitude": 39.993523, "longitude": 116.456852}, "today": {"closeTime": "21:00:00", "openTime": "08:00:00"}, "features": ["OG", "DL"], "hasArtwork": false, "storeNumber": "50087-267365"}, {"id": "94719", "name": "北京五棵松卓展店", "address": {"city": "北京市", "streetAddressLine1": "海淀区", "streetAddressLine2": null, "streetAddressLine3": "复兴路69号3号楼1层（01）101号001单元", "postalCode": "100044"}, "coordinates": {"latitude": 39.913148, "longitude": 116.278119}, "today": {"closeTime": "22:00:00", "openTime": "08:00:00"}, "features": ["OG", "DL", "MIC"], "hasArtwork": false, "storeNumber": "16948-173925"}, {"id": "114015", "name": "北京五棵松第二咖啡店", "address": {"city": "北京市", "streetAddressLine1": "海淀区", "streetAddressLine2": "3号楼5层（05）502-5C015单元", "streetAddressLine3": "复兴路69号", "postalCode": "100044"}, "coordinates": {"latitude": 39.913501, "longitude": 116.27763}, "today": {"closeTime": "22:00:00", "openTime": "10:30:00"}, "features": ["OG", "MIC"], "hasArtwork": false, "storeNumber": "18111-188064"}, {"id": "1008065", "name": "北京科学院南路店", "address": {"city": "北京市", "streetAddressLine1": "海淀区", "streetAddressLine2": "融科资讯中心B座1层019单元", "streetAddressLine3": "科学院南路6号", "postalCode": "100871"}, "coordinates": {"latitude": 39.983547, "longitude": 116.326724}, "today": {"closeTime": "21:00:00", "openTime": "07:30:00"}, "features": ["OG", "DL", "NCB", "PO"], "hasArtwork": false, "storeNumber": "19596-199925"}, {"id": "1799", "name": "北京望京店", "address": {"city": "北京市", "streetAddressLine1": "朝阳区", "streetAddressLine2": "北京新世界利莹百货首层010760A", "streetAddressLine3": "广顺南大街16号院1号楼", "postalCode": "100022"}, "coordinates": {"latitude": 39.986755, "longitude": 116.480248}, "today": {"closeTime": "22:00:00", "openTime": "07:30:00"}, "features": ["OG", "DL", "MIC", "NCB"], "hasArtwork": false, "storeNumber": "32708-134010"}, {"id": "1017948", "name": "北京南四环西路第二店", "address": {"city": "北京市", "streetAddressLine1": "北京市", "streetAddressLine2": "物业2号楼一层02111商铺", "streetAddressLine3": "丰台区南四环西路76号", "postalCode": null}, "coordinates": {"latitude": 39.827751, "longitude": 116.32261}, "today": {"closeTime": "22:00:00", "openTime": "10:00:00"}, "features": ["OG", "DL", "MIC"], "hasArtwork": false, "storeNumber": "48937-265750"}, {"id": "1012988", "name": "北京望京凯德咖啡店", "address": {"city": "北京市", "streetAddressLine1": "朝阳区", "streetAddressLine2": "望京嘉茂1层", "streetAddressLine3": "广顺北大街33号", "postalCode": "100102"}, "coordinates": {"latitude": 39.992319, "longitude": 116.469052}, "today": {"closeTime": "22:00:00", "openTime": "07:30:00"}, "features": ["OG", "DL", "MIC", "NCB", "RC"], "hasArtwork": false, "storeNumber": "28785-250566"}, {"id": "1025803", "name": "北京电子城国电总部店", "address": {"city": "北京市", "streetAddressLine1": "北京市朝阳区酒仙桥路6号院5号楼104号", "streetAddressLine2": null, "streetAddressLine3": "商铺", "postalCode": "100000"}, "coordinates": {"latitude": 39.981272, "longitude": 116.49014}, "today": {"closeTime": "20:00:00", "openTime": "08:00:00"}, "features": ["OG", "MIC", "PO", "SBB"], "hasArtwork": false, "storeNumber": "59614-293853"}, {"id": "1005451", "name": "北京五道口购物中心店", "address": {"city": "北京市", "streetAddressLine1": "海淀区", "streetAddressLine2": "1层101-10B及2层201-09号", "streetAddressLine3": "成府路28号", "postalCode": "100083"}, "coordinates": {"latitude": 39.991447, "longitude": 116.338999}, "today": {"closeTime": "22:00:00", "openTime": "08:00:00"}, "features": ["OG", "DL"], "hasArtwork": false, "storeNumber": "19441-199924"}, {"id": "1617", "name": "北京海淀新中关大厦店", "address": {"city": "北京市", "streetAddressLine1": "海淀区", "streetAddressLine2": "新中关大厦首层L128A号", "streetAddressLine3": "中关村大街19号", "postalCode": "100080"}, "coordinates": {"latitude": 39.978319, "longitude": 116.315651}, "today": {"closeTime": "22:00:00", "openTime": "08:00:00"}, "features": ["OG", "DL", "MIC"], "hasArtwork": false, "storeNumber": "31374-105225"}, {"id": "1018614", "name": "北京酒仙桥路第三咖啡店", "address": {"city": "北京市", "streetAddressLine1": "朝阳区", "streetAddressLine2": "2号楼1层103-01号", "streetAddressLine3": "酒仙桥路6号院", "postalCode": null}, "coordinates": {"latitude": 39.982832, "longitude": 116.490386}, "today": {"closeTime": "21:00:00", "openTime": "08:00:00"}, "features": ["OG", "DL", "MIC", "PO"], "hasArtwork": false, "storeNumber": "50595-275244"}, {"id": "1017278", "name": "北京中关村大街第三店", "address": {"city": "北京市", "streetAddressLine1": "北京市海淀区", "streetAddressLine2": null, "streetAddressLine3": "中关村大街15-9号", "postalCode": "100000"}, "coordinates": {"latitude": 39.979654, "longitude": 116.315065}, "today": {"closeTime": "22:00:00", "openTime": "08:00:00"}, "features": ["OG", "BE", "MIC", "NCB", "RC", "SBB"], "hasArtwork": false, "storeNumber": "50243-273624"}, {"id": "1018610", "name": "北京酒仙桥路第四咖啡店", "address": {"city": "北京市", "streetAddressLine1": "朝阳区", "streetAddressLine2": "B 座1 层101-01 号", "streetAddressLine3": "酒仙桥路6号院2号楼", "postalCode": null}, "coordinates": {"latitude": 39.983241, "longitude": 116.491017}, "today": {"closeTime": "19:00:00", "openTime": "07:30:00"}, "features": ["OG", "DL"], "hasArtwork": false, "storeNumber": "50518-275245"}, {"id": "1018401", "name": "北京利星行二期店", "address": {"city": "北京市", "streetAddressLine1": "朝阳区广顺南大街8号院1号楼", "streetAddressLine2": null, "streetAddressLine3": null, "postalCode": null}, "coordinates": {"latitude": 39.992006, "longitude": 116.475553}, "today": {"closeTime": "20:30:00", "openTime": "07:30:00"}, "features": ["OG", "DL", "MIC", "NCB", "RC", "SBB"], "hasArtwork": false, "storeNumber": "50359-274367"}, {"id": "1009679", "name": "北京阜通东大街咖啡店", "address": {"city": "北京市", "streetAddressLine1": "朝阳区", "streetAddressLine2": "3号楼物业一层1-101单元", "streetAddressLine3": "北京市朝阳区阜通东大街6号院", "postalCode": "100102"}, "coordinates": {"latitude": 39.989613, "longitude": 116.480738}, "today": {"closeTime": "22:00:00", "openTime": "07:00:00"}, "features": ["OG", "DL", "MIC", "NCB"], "hasArtwork": false, "storeNumber": "24021-233445"}, {"id": "89861", "name": "北京远大路金源燕莎2店", "address": {"city": "北京市", "streetAddressLine1": "海淀区", "streetAddressLine2": "北京燕莎友谊商城金源店地下一层", "streetAddressLine3": "远大路1号", "postalCode": "100089"}, "coordinates": {"latitude": 39.958775, "longitude": 116.2912}, "today": {"closeTime": "20:30:00", "openTime": "10:00:00"}, "features": ["OG", "DL", "MIC"], "hasArtwork": false, "storeNumber": "16523-172364"}, {"id": "92830", "name": "北京中关村亿世界店", "address": {"city": "北京市", "streetAddressLine1": "海淀区", "streetAddressLine2": null, "streetAddressLine3": "中关村大街11号一层A1500A单元", "postalCode": "100080"}, "coordinates": {"latitude": 39.981256, "longitude": 116.315133}, "today": {"closeTime": "20:00:00", "openTime": "08:00:00"}, "features": ["OG", "DL"], "hasArtwork": false, "storeNumber": "18263-184005"}, {"id": "1813", "name": "北京远大路金源燕莎店", "address": {"city": "北京市", "streetAddressLine1": "海淀区", "streetAddressLine2": "金源燕莎Mall首层1016", "streetAddressLine3": "远大路1号", "postalCode": "100089"}, "coordinates": {"latitude": 39.958416, "longitude": 116.28947}, "today": {"closeTime": "22:00:00", "openTime": "08:00:00"}, "features": ["OG", "DL", "MIC"], "hasArtwork": false, "storeNumber": "32135-127705"}, {"id": "1909", "name": "北京望京鹏景阁店", "address": {"city": "北京市", "streetAddressLine1": "朝阳区", "streetAddressLine2": "鹏景阁首层", "streetAddressLine3": "望京湖光中街1号", "postalCode": null}, "coordinates": {"latitude": 39.997655, "longitude": 116.467166}, "today": {"closeTime": "22:00:00", "openTime": "07:00:00"}, "features": ["OG", "DL"], "hasArtwork": false, "storeNumber": "34058-98764"}, {"id": "92500", "name": "北京中关村大街海龙大厦", "address": {"city": "北京市", "streetAddressLine1": "海淀区", "streetAddressLine2": null, "streetAddressLine3": "中关村大街1号1号楼1层F100号铺位", "postalCode": "100080"}, "coordinates": {"latitude": 39.983026, "longitude": 116.315157}, "today": {"closeTime": "21:00:00", "openTime": "07:00:00"}, "features": ["OG", "DL", "MIC"], "hasArtwork": false, "storeNumber": "18250-184006"}, {"id": "1005680", "name": "北京远大路第三咖啡店", "address": {"city": "北京市", "streetAddressLine1": "海淀区", "streetAddressLine2": "金源燕莎mall首层", "streetAddressLine3": "远大路1号", "postalCode": "100097"}, "coordinates": {"latitude": 39.959189, "longitude": 116.288957}, "today": {"closeTime": "22:00:00", "openTime": "08:00:00"}, "features": ["OG", "DL", "MIC"], "hasArtwork": false, "storeNumber": "21154-209504"}, {"id": "1922", "name": "北京威新国际大厦店", "address": {"city": "北京市", "streetAddressLine1": "海淀区", "streetAddressLine2": "清华科技园9号楼威新国际大厦首层", "streetAddressLine3": "中关村东路1号", "postalCode": "100084"}, "coordinates": {"latitude": 39.993171, "longitude": 116.332409}, "today": {"closeTime": "21:00:00", "openTime": "07:00:00"}, "features": ["OG", "DL", "MIC"], "hasArtwork": false, "storeNumber": "34060-99446"}, {"id": "1577", "name": "北京海淀鼎好电子大厦店", "address": {"city": "北京市", "streetAddressLine1": "海淀区", "streetAddressLine2": "鼎好电子大厦1层", "streetAddressLine3": "海淀大街3号", "postalCode": "100080"}, "coordinates": {"latitude": 39.982733, "longitude": 116.314051}, "today": {"closeTime": "20:00:00", "openTime": "07:30:00"}, "features": ["OG", "DL"], "hasArtwork": false, "storeNumber": "34040-91816"}, {"id": "1649", "name": "北京金码大厦店", "address": {"city": "北京市", "streetAddressLine1": "海淀区", "streetAddressLine2": "金码大厦A座首层", "streetAddressLine3": "清华东路2号", "postalCode": "100080"}, "coordinates": {"latitude": 40.001703, "longitude": 116.353323}, "today": {"closeTime": "22:00:00", "openTime": "07:00:00"}, "features": ["OG", "DL", "MIC"], "hasArtwork": false, "storeNumber": "34051-94616"}, {"id": "1019472", "name": "北京花园闸路咖啡店", "address": {"city": "北京市", "streetAddressLine1": "朝阳区", "streetAddressLine2": "1号楼1至17层101内1层02单元", "streetAddressLine3": "建国路27号院", "postalCode": "100020"}, "coordinates": {"latitude": 39.912498, "longitude": 116.541792}, "today": {"closeTime": "21:00:00", "openTime": "07:30:00"}, "features": ["OG", "DL", "MIC", "PO"], "hasArtwork": false, "storeNumber": "52930-283447"}, {"id": "1017673", "name": "北京酒仙桥路第二咖啡店", "address": {"city": "北京市", "streetAddressLine1": "北京", "streetAddressLine2": "39号楼", "streetAddressLine3": "朝阳区酒仙桥2号院内11所", "postalCode": "100015"}, "coordinates": {"latitude": 39.985963, "longitude": 116.493861}, "today": {"closeTime": "20:00:00", "openTime": "08:00:00"}, "features": ["OG", "BE", "DL", "MIC", "NCB", "RC", "SBB"], "hasArtwork": true, "storeNumber": "49962-271928"}, {"id": "116340", "name": "北京奥村咖啡店", "address": {"city": "北京市", "streetAddressLine1": "朝阳区", "streetAddressLine2": "甲3号楼一层F106区域", "streetAddressLine3": "林翠东路2号院", "postalCode": "100101"}, "coordinates": {"latitude": 40.00928, "longitude": 116.381557}, "today": {"closeTime": "21:00:00", "openTime": "07:30:00"}, "features": ["OG", "DL", "MIC"], "hasArtwork": false, "storeNumber": "18582-192605"}, {"id": "1024127", "name": "北京麒麟社咖啡店", "address": {"city": "北京市", "streetAddressLine1": "北京市朝阳区望京街4号楼一层星巴克门店", "streetAddressLine2": null, "streetAddressLine3": null, "postalCode": "100000"}, "coordinates": {"latitude": 39.996717, "longitude": 116.47778}, "today": {"closeTime": "21:00:00", "openTime": "08:00:00"}, "features": ["OG", "DL"], "hasArtwork": false, "storeNumber": "57761-291893"}, {"id": "1018707", "name": "北京永定路咖啡店", "address": {"city": "北京市", "streetAddressLine1": "海淀区", "streetAddressLine2": "西点百货一层", "streetAddressLine3": "永定路88号", "postalCode": "100039"}, "coordinates": {"latitude": 39.905029, "longitude": 116.265146}, "today": {"closeTime": "21:30:00", "openTime": "08:00:00"}, "features": ["OG", "DL", "MIC"], "hasArtwork": false, "storeNumber": "50592-275311"}, {"id": "1021637", "name": "北京望京SOHO 2店", "address": {"city": "北京市", "streetAddressLine1": "朝阳区", "streetAddressLine2": "5号楼", "streetAddressLine3": "阜通东大街1号院", "postalCode": "100024"}, "coordinates": {"latitude": 39.995523, "longitude": 116.481037}, "today": {"closeTime": "21:00:00", "openTime": "07:30:00"}, "features": ["OG", "DL", "MIC", "NCB", "RC", "SBB"], "hasArtwork": false, "storeNumber": "54940-288715"}, {"id": "1013573", "name": "北京旧宫万科咖啡店", "address": {"city": "北京市", "streetAddressLine1": "北京市", "streetAddressLine2": "住总万科广场一层L1001、L1002号", "streetAddressLine3": "大兴区旧宫忠凉路1号院1号楼", "postalCode": "100076"}, "coordinates": {"latitude": 39.805754, "longitude": 116.46064}, "today": {"closeTime": "22:00:00", "openTime": "08:00:00"}, "features": ["OG", "DL", "PO"], "hasArtwork": false, "storeNumber": "29486-253468"}, {"id": "89381", "name": "北京大成路店", "address": {"city": "北京市", "streetAddressLine1": "丰台区", "streetAddressLine2": "零售商区的一层及负一层的01单元", "streetAddressLine3": "大成南里三区13号楼", "postalCode": "100039"}, "coordinates": {"latitude": 39.888714, "longitude": 116.265206}, "today": {"closeTime": "21:30:00", "openTime": "08:00:00"}, "features": ["OG", "DL", "MIC"], "hasArtwork": false, "storeNumber": "16791-175985"}, {"id": "1016342", "name": "北京阜通东大街二店", "address": {"city": "北京市", "streetAddressLine1": "朝阳区", "streetAddressLine2": "1号院6号楼1层2112", "streetAddressLine3": "阜通东大街", "postalCode": "100102"}, "coordinates": {"latitude": 39.997448, "longitude": 116.480174}, "today": {"closeTime": "21:00:00", "openTime": "07:30:00"}, "features": ["OG", "DL", "MIC", "NCB", "PO"], "hasArtwork": false, "storeNumber": "49314-268025"}, {"id": "1934", "name": "北京大恒科技大厦店", "address": {"city": "北京市", "streetAddressLine1": "海淀区", "streetAddressLine2": "大恒科技大厦首层", "streetAddressLine3": "苏州街3号，+C148", "postalCode": "100080"}, "coordinates": {"latitude": 39.982554, "longitude": 116.305401}, "today": {"closeTime": "21:00:00", "openTime": "07:30:00"}, "features": ["OG", "DL", "MIC", "NCB", "PO"], "hasArtwork": false, "storeNumber": "30866-100633"}, {"id": "1019729", "name": "北京阜安路咖啡店", "address": {"city": "北京市", "streetAddressLine1": "朝阳区", "streetAddressLine2": "1层1F-19a和19b商铺", "streetAddressLine3": "望京东园一区120号楼-2至6层101内", "postalCode": "110102"}, "coordinates": {"latitude": 39.998515, "longitude": 116.482284}, "today": {"closeTime": "22:00:00", "openTime": "08:00:00"}, "features": ["OG", "DL"], "hasArtwork": false, "storeNumber": "52946-283547"}, {"id": "1012291", "name": "北京望京东园二店", "address": {"city": "北京市", "streetAddressLine1": "朝阳区", "streetAddressLine2": "望京保利国际广场T1一层101单元", "streetAddressLine3": "望京东园七区", "postalCode": null}, "coordinates": {"latitude": 39.996143, "longitude": 116.491621}, "today": {"closeTime": "19:30:00", "openTime": "07:30:00"}, "features": ["OG", "DL", "PO"], "hasArtwork": false, "storeNumber": "27945-248028"}, {"id": "1020590", "name": "北京五圈路咖啡店", "address": {"city": "北京市", "streetAddressLine1": "北京市", "streetAddressLine2": "汽车博物馆西路3号楼1层111-A", "streetAddressLine3": "丰台区", "postalCode": "100000"}, "coordinates": {"latitude": 39.824889, "longitude": 116.30168}, "today": {"closeTime": "20:00:00", "openTime": "07:30:00"}, "features": ["OG", "DL", "MIC"], "hasArtwork": false, "storeNumber": "53570-285772"}, {"id": "1022944", "name": "北京浦项中心店", "address": {"city": "北京市", "streetAddressLine1": "北京市朝阳区望京东园四区13号楼", "streetAddressLine2": null, "streetAddressLine3": null, "postalCode": "100000"}, "coordinates": {"latitude": 39.999006, "longitude": 116.488804}, "today": {"closeTime": "20:00:00", "openTime": "08:00:00"}, "features": ["OG", "NCB", "PO", "SBB"], "hasArtwork": false, "storeNumber": "56619-290515"}, {"id": "1018431", "name": "北京畅春园店", "address": {"city": "北京市", "streetAddressLine1": "海淀区", "streetAddressLine2": "-2至3层01地上一层", "streetAddressLine3": "颐和园路8号", "postalCode": "100000"}, "coordinates": {"latitude": 39.988596, "longitude": 116.304681}, "today": {"closeTime": "20:30:00", "openTime": "08:00:00"}, "features": ["OG", "DL", "PO"], "hasArtwork": false, "storeNumber": "50862-276173"}, {"id": "1012338", "name": "北京望京东园店", "address": {"city": "北京市", "streetAddressLine1": "朝阳区", "streetAddressLine2": "9号楼1层101-1号", "streetAddressLine3": "望京东园四区", "postalCode": null}, "coordinates": {"latitude": 39.999666, "longitude": 116.488062}, "today": {"closeTime": "20:00:00", "openTime": "08:00:00"}, "features": ["OG", "DL", "PO"], "hasArtwork": false, "storeNumber": "28044-243727"}, {"id": "1009053", "name": "北京西四环南路咖啡店", "address": {"city": "北京市", "streetAddressLine1": "丰台区", "streetAddressLine2": "资和信百货商场F1-1024", "streetAddressLine3": "西四环南路103号院1号", "postalCode": "110000"}, "coordinates": {"latitude": 39.837936, "longitude": 116.285194}, "today": {"closeTime": "21:30:00", "openTime": "09:00:00"}, "features": ["OG", "DL", "MIC"], "hasArtwork": false, "storeNumber": "23505-228667"}, {"id": "1022441", "name": "北京汉威国际广场1店", "address": {"city": "北京市", "streetAddressLine1": "北京市丰台区南四环西路186号一区1号楼", "streetAddressLine2": null, "streetAddressLine3": null, "postalCode": "100000"}, "coordinates": {"latitude": 39.827793, "longitude": 116.295798}, "today": {"closeTime": "19:00:00", "openTime": "07:30:00"}, "features": ["OG", "DL", "MIC", "PO", "SBB"], "hasArtwork": false, "storeNumber": "55337-289190"}, {"id": "1017068", "name": "丰科路万达广场店", "address": {"city": "北京市", "streetAddressLine1": "北京市", "streetAddressLine2": "第一层1056号和1057号商铺", "streetAddressLine3": "丰科路6号院", "postalCode": "100000"}, "coordinates": {"latitude": 39.824572, "longitude": 116.29841}, "today": {"closeTime": "22:00:00", "openTime": "08:30:00"}, "features": ["OG", "DL", "MIC", "NCB", "PO"], "hasArtwork": false, "storeNumber": "49654-270524"}, {"id": "1019646", "name": "北京望京东路咖啡店", "address": {"city": "北京市", "streetAddressLine1": "朝阳区", "streetAddressLine2": "北望金辉大厦一层105单元", "streetAddressLine3": "望京东园四区6号楼", "postalCode": "100102"}, "coordinates": {"latitude": 40.001893, "longitude": 116.488584}, "today": {"closeTime": "19:30:00", "openTime": "08:00:00"}, "features": ["OG", "DL", "PO"], "hasArtwork": false, "storeNumber": "50446-267366"}, {"id": "1017365", "name": "北京望京华彩店", "address": {"city": "北京市", "streetAddressLine1": "朝阳区", "streetAddressLine2": "望京华彩商业中心一层", "streetAddressLine3": "广顺北大街16号院3号楼", "postalCode": null}, "coordinates": {"latitude": 40.011123, "longitude": 116.468472}, "today": {"closeTime": "22:00:00", "openTime": "07:30:00"}, "features": ["OG", "DL", "MIC", "PO"], "hasArtwork": false, "storeNumber": "50085-272707"}, {"id": "1014154", "name": "北京鲁谷远洋咖啡店", "address": {"city": "北京市", "streetAddressLine1": "石景山区", "streetAddressLine2": "远洋沁山水1层A001单元", "streetAddressLine3": "玉泉路59号院1号楼", "postalCode": "100000"}, "coordinates": {"latitude": 39.903549, "longitude": 116.252158}, "today": {"closeTime": "21:00:00", "openTime": "08:00:00"}, "features": ["OG", "DL", "MIC", "NCB", "PO"], "hasArtwork": false, "storeNumber": "47178-255931"}, {"id": "1024788", "name": "北京科技财富中心店", "address": {"city": "北京市", "streetAddressLine1": "北京市海淀区学清路8号1号楼A101B号", "streetAddressLine2": null, "streetAddressLine3": null, "postalCode": "100000"}, "coordinates": {"latitude": 40.015642, "longitude": 116.35361}, "today": {"closeTime": "19:30:00", "openTime": "08:00:00"}, "features": ["OG", "DL"], "hasArtwork": false, "storeNumber": "58483-292698"}, {"id": "1011402", "name": "北京金隅嘉品店", "address": {"city": "北京市", "streetAddressLine1": "朝阳区", "streetAddressLine2": "L126、L127a、L129a单元", "streetAddressLine3": "东坝中路38号一层", "postalCode": null}, "coordinates": {"latitude": 39.95117, "longitude": 116.547637}, "today": {"closeTime": "22:00:00", "openTime": "08:00:00"}, "features": ["OG", "DL"], "hasArtwork": false, "storeNumber": "25929-242004"}, {"id": "1007712", "name": "北京南四环西路咖啡店", "address": {"city": "北京市", "streetAddressLine1": "丰台区", "streetAddressLine2": "1层（01）101区域内的01单元", "streetAddressLine3": "南四环西路118号一区31号楼", "postalCode": "100000"}, "coordinates": {"latitude": 39.827294, "longitude": 116.286987}, "today": {"closeTime": "19:00:00", "openTime": "07:30:00"}, "features": ["OG", "DL", "MIC"], "hasArtwork": false, "storeNumber": "23011-226247"}, {"id": "65445", "name": "北京文化园东路店", "address": {"city": "北京市", "streetAddressLine1": "经济技术开发区", "streetAddressLine2": null, "streetAddressLine3": "文化园东路6号01C01", "postalCode": "100176"}, "coordinates": {"latitude": 39.811142, "longitude": 116.503064}, "today": {"closeTime": "21:00:00", "openTime": "08:00:00"}, "features": ["OG", "DL", "MIC", "NCB", "PO"], "hasArtwork": false, "storeNumber": "15061-157304"}, {"id": "1017047", "name": "北京文化园西路咖啡店", "address": {"city": "北京市", "streetAddressLine1": "大兴区", "streetAddressLine2": "17号楼一层101-1单元", "streetAddressLine3": "亦庄经济技术开发区文化园西路6号院", "postalCode": null}, "coordinates": {"latitude": 39.805063, "longitude": 116.494911}, "today": {"closeTime": "21:00:00", "openTime": "09:00:00"}, "features": ["OG", "DL", "MIC"], "hasArtwork": false, "storeNumber": "49372-268426"}, {"id": "1011403", "name": "北京丰葆路店", "address": {"city": "北京市", "streetAddressLine1": "丰台区", "streetAddressLine2": "1号楼", "streetAddressLine3": "丰葆路88号", "postalCode": null}, "coordinates": {"latitude": 39.818951, "longitude": 116.291004}, "today": {"closeTime": "22:00:00", "openTime": "09:00:00"}, "features": ["OG", "DL", "MIC"], "hasArtwork": false, "storeNumber": "25930-242325"}, {"id": "1010400", "name": "北京宏福路咖啡店", "address": {"city": "北京市", "streetAddressLine1": "大兴区", "streetAddressLine2": "鸿坤生活广场一层", "streetAddressLine3": "西红门宏福路", "postalCode": "100162"}, "coordinates": {"latitude": 39.790874, "longitude": 116.340647}, "today": {"closeTime": "22:00:00", "openTime": "07:00:00"}, "features": ["OG", "DL", "MIC"], "hasArtwork": false, "storeNumber": "24776-238425"}, {"id": "1012341", "name": "北京望京诚盈中心店", "address": {"city": "北京市", "streetAddressLine1": "朝阳区", "streetAddressLine2": "3号楼地上一层102A", "streetAddressLine3": "来广营西路5号院", "postalCode": null}, "coordinates": {"latitude": 40.0212, "longitude": 116.46641}, "today": {"closeTime": "21:00:00", "openTime": "07:30:00"}, "features": ["OG", "DL", "MIC", "PO"], "hasArtwork": false, "storeNumber": "28047-248965"}, {"id": "116352", "name": "北京天畅园咖啡店", "address": {"city": "北京市", "streetAddressLine1": "朝阳区", "streetAddressLine2": null, "streetAddressLine3": "天畅园7号楼1层108号", "postalCode": "100107"}, "coordinates": {"latitude": 40.033222, "longitude": 116.416217}, "today": {"closeTime": "21:00:00", "openTime": "07:00:00"}, "features": ["OG", "DL", "MIC"], "hasArtwork": false, "storeNumber": "18792-194945"}, {"id": "65762", "name": "北京龙湖天街店", "address": {"city": "北京市", "streetAddressLine1": "海淀区", "streetAddressLine2": null, "streetAddressLine3": "颐和园路206号206-14、15、16", "postalCode": "100091"}, "coordinates": {"latitude": 39.998278, "longitude": 116.288977}, "today": {"closeTime": "21:00:00", "openTime": "08:00:00"}, "features": ["OG", "DL", "MIC"], "hasArtwork": false, "storeNumber": "15373-156885"}, {"id": "1011302", "name": "北京欣宁大街咖啡店", "address": {"city": "北京市", "streetAddressLine1": "大兴区", "streetAddressLine2": "欣宁大街15号1层1-01-28-R号", "streetAddressLine3": "西红门镇", "postalCode": "100076"}, "coordinates": {"latitude": 39.789251, "longitude": 116.326931}, "today": {"closeTime": "22:00:00", "openTime": "08:00:00"}, "features": ["OG", "DL", "MIC", "NCB"], "hasArtwork": false, "storeNumber": "25089-203544"}, {"id": "1009901", "name": "北京清河嘉园东区咖啡店", "address": {"city": "北京市", "streetAddressLine1": "海淀区", "streetAddressLine2": "清河翠微百货一层101-01单元", "streetAddressLine3": "清河嘉园东区甲1号楼", "postalCode": "100085"}, "coordinates": {"latitude": 40.030646, "longitude": 116.346386}, "today": {"closeTime": "21:00:00", "openTime": "08:00:00"}, "features": ["OG", "DL", "MIC"], "hasArtwork": false, "storeNumber": "24398-236227"}, {"id": "1025794", "name": "北京中关村智诚科创园店", "address": {"city": "北京市", "streetAddressLine1": "北京海淀区宝盛北里西区28号楼一层109", "streetAddressLine2": null, "streetAddressLine3": null, "postalCode": "100000"}, "coordinates": {"latitude": 40.037238, "longitude": 116.370658}, "today": {"closeTime": "20:00:00", "openTime": "07:30:00"}, "features": ["OG", "MIC"], "hasArtwork": false, "storeNumber": "59822-294172"}, {"id": "1015976", "name": "北京朝林广场店", "address": {"city": "北京市", "streetAddressLine1": "大兴区", "streetAddressLine2": "朝林广场A座一层", "streetAddressLine3": "亦庄天宝东路", "postalCode": "100176"}, "coordinates": {"latitude": 39.793844, "longitude": 116.505629}, "today": {"closeTime": "18:30:00", "openTime": "08:00:00"}, "features": ["OG", "DL", "MIC"], "hasArtwork": false, "storeNumber": "48700-264727"}, {"id": "1014231", "name": "北京大兴星光影视基地店", "address": {"city": "北京市", "streetAddressLine1": "大兴区", "streetAddressLine2": null, "streetAddressLine3": "北兴路2号1幢", "postalCode": null}, "coordinates": {"latitude": 39.773278, "longitude": 116.362675}, "today": {"closeTime": "21:00:00", "openTime": "08:00:00"}, "features": ["OG", "DL", "MIC"], "hasArtwork": false, "storeNumber": "47358-256506"}, {"id": "1011574", "name": "北京陈家营西路店", "address": {"city": "北京市", "streetAddressLine1": "昌平区", "streetAddressLine2": "招商嘉铭珑原商业楼", "streetAddressLine3": "陈家营西路3号院23号楼", "postalCode": null}, "coordinates": {"latitude": 40.040929, "longitude": 116.401191}, "today": {"closeTime": "21:00:00", "openTime": "08:00:00"}, "features": ["OG", "DL", "MIC"], "hasArtwork": false, "storeNumber": "26234-243485"}, {"id": "1018637", "name": "北京五彩城第二咖啡店", "address": {"city": "北京市", "streetAddressLine1": "海淀区", "streetAddressLine2": "1号楼4层（04）401内L467号", "streetAddressLine3": "清河中街66号院", "postalCode": "100085"}, "coordinates": {"latitude": 40.030302, "longitude": 116.33486}, "today": {"closeTime": "22:00:00", "openTime": "10:00:00"}, "features": ["OG", "MIC"], "hasArtwork": false, "storeNumber": "50927-276630"}, {"id": "65765", "name": "北京五彩城店", "address": {"city": "北京市", "streetAddressLine1": "海淀区", "streetAddressLine2": "五彩城西区首层L101号商铺", "streetAddressLine3": "清河中街68号", "postalCode": "100085"}, "coordinates": {"latitude": 40.030463, "longitude": 116.333146}, "today": {"closeTime": "22:00:00", "openTime": "10:00:00"}, "features": ["OG", "DL", "MIC", "NCB"], "hasArtwork": false, "storeNumber": "15588-159385"}, {"id": "1020798", "name": "北京玉泉商业中心店", "address": {"city": "北京市", "streetAddressLine1": "北京市海淀区四季青镇玉泉村北坞嘉园", "streetAddressLine2": null, "streetAddressLine3": null, "postalCode": null}, "coordinates": {"latitude": 39.976049, "longitude": 116.252013}, "today": {"closeTime": "21:30:00", "openTime": "08:00:00"}, "features": ["OG", "DL"], "hasArtwork": false, "storeNumber": "53724-285975"}, {"id": "1025163", "name": "北京石景山万达广场2店", "address": {"city": "北京市", "streetAddressLine1": "北京市石景山区石景山路乙18号院4号楼", "streetAddressLine2": null, "streetAddressLine3": "石景山万达广场购物中心2层", "postalCode": "100000"}, "coordinates": {"latitude": 39.905983, "longitude": 116.225422}, "today": {"closeTime": "22:00:00", "openTime": "10:00:00"}, "features": ["OG", "DL"], "hasArtwork": false, "storeNumber": "59113-293302"}, {"id": "1007746", "name": "北京石景山万达广场店", "address": {"city": "北京市", "streetAddressLine1": "北京市", "streetAddressLine2": "石景山万达广场一层", "streetAddressLine3": "石景山路乙18号院4号楼", "postalCode": "100040"}, "coordinates": {"latitude": 39.906199, "longitude": 116.225259}, "today": {"closeTime": "22:00:00", "openTime": "09:00:00"}, "features": ["OG", "DL", "MIC"], "hasArtwork": false, "storeNumber": "22757-222624"}, {"id": "1013167", "name": "北京大族溢彩城店", "address": {"city": "北京市", "streetAddressLine1": "北京经济技术开发区荣华南路2号院8号楼1层F1-37", "streetAddressLine2": null, "streetAddressLine3": null, "postalCode": "100000"}, "coordinates": {"latitude": 39.792411, "longitude": 116.512629}, "today": {"closeTime": "22:00:00", "openTime": "09:00:00"}, "features": ["OG", "DL", "MIC", "NCB", "RC", "SBB"], "hasArtwork": false, "storeNumber": "28992-251824"}, {"id": "1022772", "name": "北京大族溢彩城2店", "address": {"city": "北京市", "streetAddressLine1": "北京市大兴区", "streetAddressLine2": null, "streetAddressLine3": "亦庄荣华南路大族广场T2三层", "postalCode": "100000"}, "coordinates": {"latitude": 39.790699, "longitude": 116.512651}, "today": {"closeTime": "22:00:00", "openTime": "10:00:00"}, "features": ["OG", "DL", "MIC"], "hasArtwork": false, "storeNumber": "56329-290228"}, {"id": "1018494", "name": "北京杏石口咖啡店", "address": {"city": "北京市", "streetAddressLine1": "海淀区", "streetAddressLine2": "西杉创意园4号楼107单元", "streetAddressLine3": "杏石口路与巨山路交叉口", "postalCode": null}, "coordinates": {"latitude": 39.954163, "longitude": 116.2308}, "today": {"closeTime": "21:00:00", "openTime": "09:00:00"}, "features": ["OG", "DL", "PO"], "hasArtwork": false, "storeNumber": "50865-276170"}, {"id": "1011725", "name": "北京清河营南街店", "address": {"city": "北京市", "streetAddressLine1": "朝阳区", "streetAddressLine2": "7号院4号楼一层126-127商铺", "streetAddressLine3": "清河营南街", "postalCode": null}, "coordinates": {"latitude": 40.04647, "longitude": 116.433177}, "today": {"closeTime": "22:00:00", "openTime": "08:00:00"}, "features": ["OG", "DL", "MIC"], "hasArtwork": false, "storeNumber": "26823-244745"}, {"id": "1014058", "name": "北京西小口路店", "address": {"city": "北京市", "streetAddressLine1": "海淀区", "streetAddressLine2": "中关村东升科技园B区6号楼C座一层101", "streetAddressLine3": "西小口路66号", "postalCode": "100096"}, "coordinates": {"latitude": 40.046731, "longitude": 116.356631}, "today": {"closeTime": "20:00:00", "openTime": "08:00:00"}, "features": ["OG", "DL", "MIC", "PO"], "hasArtwork": false, "storeNumber": "47007-255365"}, {"id": "1007815", "name": "北京常通路第一咖啡店", "address": {"city": "北京市", "streetAddressLine1": "朝阳区", "streetAddressLine2": "1号院1号楼 1F-08/2F-08", "streetAddressLine3": "常通路", "postalCode": null}, "coordinates": {"latitude": 39.92506, "longitude": 116.598252}, "today": {"closeTime": "22:00:00", "openTime": "08:00:00"}, "features": ["OG", "DL", "MIC"], "hasArtwork": false, "storeNumber": "22970-224005"}, {"id": "1007816", "name": "北京常通路第二咖啡店", "address": {"city": "北京市", "streetAddressLine1": "北京市", "streetAddressLine2": "2号院1号楼4F-27", "streetAddressLine3": "朝阳区常通路", "postalCode": null}, "coordinates": {"latitude": 39.924529, "longitude": 116.60042}, "today": {"closeTime": "22:00:00", "openTime": "10:00:00"}, "features": ["OG", "DL", "MIC"], "hasArtwork": false, "storeNumber": "22971-224065"}, {"id": "1020125", "name": "北京荣华南路咖啡店", "address": {"city": "北京市", "streetAddressLine1": "北京市", "streetAddressLine2": "1号楼101-011室", "streetAddressLine3": "经济技术开发区荣华南路15号院", "postalCode": "100176"}, "coordinates": {"latitude": 39.780994, "longitude": 116.517942}, "today": {"closeTime": "21:00:00", "openTime": "08:00:00"}, "features": ["OG", "DL", "MIC", "PO"], "hasArtwork": false, "storeNumber": "52661-282378"}, {"id": "1005328", "name": "北京上地三街咖啡店", "address": {"city": "北京市", "streetAddressLine1": "海淀区", "streetAddressLine2": "B座B-1号及B座首层玻璃间", "streetAddressLine3": "上地三街9号", "postalCode": "100085"}, "coordinates": {"latitude": 40.03691, "longitude": 116.308759}, "today": {"closeTime": "21:00:00", "openTime": "07:30:00"}, "features": ["OG", "DL"], "hasArtwork": false, "storeNumber": "19498-200685"}, {"id": "1019727", "name": "北京金星西路咖啡店", "address": {"city": "北京市", "streetAddressLine1": "大兴区", "streetAddressLine2": "3号楼1F-136-1", "streetAddressLine3": "金星西路3号院", "postalCode": null}, "coordinates": {"latitude": 39.763915, "longitude": 116.333772}, "today": {"closeTime": "22:00:00", "openTime": "09:00:00"}, "features": ["OG", "DL", "MIC"], "hasArtwork": false, "storeNumber": "52832-283189"}, {"id": "1025584", "name": "北京通厦公元99店", "address": {"city": "北京市", "streetAddressLine1": "北京市海淀区悦秀路99号1层1单元", "streetAddressLine2": null, "streetAddressLine3": null, "postalCode": "100000"}, "coordinates": {"latitude": 40.047168, "longitude": 116.337157}, "today": {"closeTime": "21:00:00", "openTime": "08:00:00"}, "features": ["OG", "DL", "MIC"], "hasArtwork": false, "storeNumber": "59046-293241"}, {"id": "19062", "name": "北京赛特奥特莱斯店", "address": {"city": "北京市", "streetAddressLine1": "朝阳区", "streetAddressLine2": null, "streetAddressLine3": "香江北路28号2-023", "postalCode": "100102"}, "coordinates": {"latitude": 40.036079, "longitude": 116.505626}, "today": {"closeTime": "21:30:00", "openTime": "10:00:00"}, "features": ["OG", "NCB"], "hasArtwork": false, "storeNumber": "3595-145605"}, {"id": "1013445", "name": "北京龙德广场二店", "address": {"city": "北京市", "streetAddressLine1": "昌平区", "streetAddressLine2": "1号楼02层(02)201内208单元", "streetAddressLine3": "立汤路186号院", "postalCode": null}, "coordinates": {"latitude": 40.058566, "longitude": 116.416118}, "today": {"closeTime": "21:30:00", "openTime": "09:00:00"}, "features": ["OG", "DL", "MIC", "PO"], "hasArtwork": false, "storeNumber": "29264-251786"}, {"id": "1016148", "name": "北京同济南路店", "address": {"city": "北京市", "streetAddressLine1": "大兴区", "streetAddressLine2": "同济南路1号院", "streetAddressLine3": "亦庄经济技术开发区", "postalCode": null}, "coordinates": {"latitude": 39.784563, "longitude": 116.530681}, "today": {"closeTime": "18:00:00", "openTime": "08:00:00"}, "features": ["OG", "PO"], "hasArtwork": false, "storeNumber": "48430-263164"}, {"id": "1008347", "name": "北京东北旺西路咖啡店", "address": {"city": "北京市", "streetAddressLine1": "海淀区", "streetAddressLine2": "4号楼一层101-01", "streetAddressLine3": "东北旺西路8号", "postalCode": null}, "coordinates": {"latitude": 40.047294, "longitude": 116.295226}, "today": {"closeTime": "20:00:00", "openTime": "07:30:00"}, "features": ["OG", "DL", "MIC", "NCB", "PO"], "hasArtwork": false, "storeNumber": "22062-214624"}, {"id": "1011853", "name": "北京黄平路咖啡店", "address": {"city": "北京市", "streetAddressLine1": "昌平区", "streetAddressLine2": null, "streetAddressLine3": "黄平路19号院1号楼B单元101-02室", "postalCode": null}, "coordinates": {"latitude": 40.066002, "longitude": 116.347588}, "today": {"closeTime": "21:30:00", "openTime": "09:00:00"}, "features": ["OG", "DL", "MIC"], "hasArtwork": false, "storeNumber": "24832-238988"}, {"id": "1021214", "name": "北京大兴天键广场店", "address": {"city": "北京市", "streetAddressLine1": "大兴区", "streetAddressLine2": null, "streetAddressLine3": "枣园路26号院", "postalCode": null}, "coordinates": {"latitude": 39.752821, "longitude": 116.315369}, "today": {"closeTime": "21:00:00", "openTime": "08:00:00"}, "features": ["OG", "DL", "MIC"], "hasArtwork": false, "storeNumber": "54506-286747"}, {"id": "1013570", "name": "北京上地东路店", "address": {"city": "北京市", "streetAddressLine1": "海淀区", "streetAddressLine2": "环洋大厦1层东101单元", "streetAddressLine3": "上地东路1号院7号楼", "postalCode": null}, "coordinates": {"latitude": 40.054224, "longitude": 116.302291}, "today": {"closeTime": "20:00:00", "openTime": "07:30:00"}, "features": ["OG", "DL", "PO"], "hasArtwork": false, "storeNumber": "29483-251693"}, {"id": "1018598", "name": "北京东北旺第二咖啡店", "address": {"city": "北京市", "streetAddressLine1": "海淀区", "streetAddressLine2": "23号楼", "streetAddressLine3": "东北旺西路8号院", "postalCode": null}, "coordinates": {"latitude": 40.048085, "longitude": 116.287436}, "today": {"closeTime": "19:30:00", "openTime": "07:30:00"}, "features": ["OG", "DL"], "hasArtwork": false, "storeNumber": "50858-276171"}, {"id": "1006648", "name": "北京上地西路咖啡店", "address": {"city": "北京市", "streetAddressLine1": "海淀区", "streetAddressLine2": "联想科技园区内", "streetAddressLine3": "上地西路6号", "postalCode": "100085"}, "coordinates": {"latitude": 40.053694, "longitude": 116.299012}, "today": {"closeTime": "21:30:00", "openTime": "08:30:00"}, "features": ["OG"], "hasArtwork": false, "storeNumber": "20674-206950"}, {"id": "1018548", "name": "北京东北旺西路第三店", "address": {"city": "北京市", "streetAddressLine1": "海淀区", "streetAddressLine2": "东区5号楼", "streetAddressLine3": "西北旺东路10号楼", "postalCode": null}, "coordinates": {"latitude": 40.048016, "longitude": 116.279651}, "today": {"closeTime": "19:30:00", "openTime": "07:30:00"}, "features": ["OG", "DL", "MIC"], "hasArtwork": false, "storeNumber": "50867-276172"}, {"id": "1023015", "name": "北京市龙域中街咖啡店", "address": {"city": "北京市", "streetAddressLine1": "北京市昌平区龙域中街1号院1号楼", "streetAddressLine2": null, "streetAddressLine3": null, "postalCode": "100000"}, "coordinates": {"latitude": 40.066003, "longitude": 116.315771}, "today": {"closeTime": "22:00:00", "openTime": "08:00:00"}, "features": ["OG", "DL", "MIC", "NCB", "PO"], "hasArtwork": false, "storeNumber": "56780-290730"}, {"id": "1009052", "name": "北京阜石路第一咖啡店", "address": {"city": "北京市", "streetAddressLine1": "石景山区", "streetAddressLine2": "一层101单元", "streetAddressLine3": "阜石路300号", "postalCode": "100041"}, "coordinates": {"latitude": 39.923015, "longitude": 116.172696}, "today": {"closeTime": "21:30:00", "openTime": "09:00:00"}, "features": ["OG", "DL", "MIC"], "hasArtwork": false, "storeNumber": "23504-229046"}, {"id": "1009880", "name": "北京通州万达广场第一店", "address": {"city": "北京市", "streetAddressLine1": "通州区", "streetAddressLine2": "通州万达广场地上一层1057号铺位", "streetAddressLine3": "新华西路58号1号楼", "postalCode": null}, "coordinates": {"latitude": 39.90571, "longitude": 116.642719}, "today": {"closeTime": "22:00:00", "openTime": "08:00:00"}, "features": ["OG", "DL", "MIC"], "hasArtwork": false, "storeNumber": "24353-235704"}, {"id": "1010071", "name": "北京顺义丽苑街咖啡店", "address": {"city": "北京市", "streetAddressLine1": "顺义区", "streetAddressLine2": "27号楼102,103单元", "streetAddressLine3": "天竺镇丽苑街15号", "postalCode": null}, "coordinates": {"latitude": 40.053526, "longitude": 116.562584}, "today": {"closeTime": "21:00:00", "openTime": "07:00:00"}, "features": ["OG", "DL", "MIC"], "hasArtwork": false, "storeNumber": "24545-237565"}, {"id": "1671", "name": "北京日祥广场店", "address": {"city": "北京市", "streetAddressLine1": "北京市顺义区日祥广场807号", "streetAddressLine2": null, "streetAddressLine3": null, "postalCode": "101312"}, "coordinates": {"latitude": 40.062841, "longitude": 116.547348}, "today": {"closeTime": "21:00:00", "openTime": "07:00:00"}, "features": ["OG", "BE", "MIC", "SBB"], "hasArtwork": false, "storeNumber": "34029-69100"}, {"id": "1009140", "name": "北京通州九棵树西路店", "address": {"city": "北京市", "streetAddressLine1": "通州区", "streetAddressLine2": "北京通州阳光新生活广场一层8-A单元", "streetAddressLine3": "九棵树西路80号", "postalCode": null}, "coordinates": {"latitude": 39.889826, "longitude": 116.656153}, "today": {"closeTime": "22:00:00", "openTime": "07:30:00"}, "features": ["OG", "DL"], "hasArtwork": false, "storeNumber": "23572-230629"}, {"id": "1022802", "name": "北京首钢店", "address": {"city": "北京市", "streetAddressLine1": "北京市石景山区首钢园区首钢主厂区内第二炼铁厂第23幢", "streetAddressLine2": null, "streetAddressLine3": null, "postalCode": "100000"}, "coordinates": {"latitude": 39.922882, "longitude": 116.152789}, "today": {"closeTime": "19:30:00", "openTime": "07:30:00"}, "features": ["OG", "PO", "SBB"], "hasArtwork": false, "storeNumber": "54982-286790"}, {"id": "1010079", "name": "北京翠景北里咖啡店", "address": {"city": "北京市", "streetAddressLine1": "通州区", "streetAddressLine2": null, "streetAddressLine3": "翠景北里21号楼", "postalCode": "101121"}, "coordinates": {"latitude": 39.888446, "longitude": 116.658309}, "today": {"closeTime": "22:00:00", "openTime": "08:00:00"}, "features": ["OG", "DL"], "hasArtwork": false, "storeNumber": "24556-238075"}, {"id": "1006486", "name": "北京欧陆时尚店", "address": {"city": "北京市", "streetAddressLine1": "顺义区", "streetAddressLine2": "一层L105和L106单元", "streetAddressLine3": "裕祥路99号", "postalCode": "101312"}, "coordinates": {"latitude": 40.066965, "longitude": 116.547712}, "today": {"closeTime": "22:00:00", "openTime": "08:00:00"}, "features": ["OG", "DL", "MIC", "NCB", "RC"], "hasArtwork": false, "storeNumber": "21524-211504"}, {"id": "1006686", "name": "北京通州贵友店", "address": {"city": "北京市", "streetAddressLine1": "通州区", "streetAddressLine2": "贵友大厦地上一层", "streetAddressLine3": "北京市通州区云景东路1号", "postalCode": "101121"}, "coordinates": {"latitude": 39.883516, "longitude": 116.666525}, "today": {"closeTime": "21:30:00", "openTime": "08:00:00"}, "features": ["OG", "DL", "MIC"], "hasArtwork": false, "storeNumber": "21714-212926"}, {"id": "1022660", "name": "北京大兴泰禾店", "address": {"city": "北京市", "streetAddressLine1": "北京市大兴区新源大街30号院1号楼1层（01）1088、1089、1090号", "streetAddressLine2": null, "streetAddressLine3": null, "postalCode": "100000"}, "coordinates": {"latitude": 39.712536, "longitude": 116.319747}, "today": {"closeTime": "21:00:00", "openTime": "08:00:00"}, "features": ["OG", "DL", "MIC"], "hasArtwork": false, "storeNumber": "54969-288756"}, {"id": "1025901", "name": "北京集成电路店", "address": {"city": "北京市", "streetAddressLine1": "北京海淀中关村集成电路设计园2号楼A座", "streetAddressLine2": null, "streetAddressLine3": null, "postalCode": "100000"}, "coordinates": {"latitude": 40.073556, "longitude": 116.247411}, "today": {"closeTime": "20:00:00", "openTime": "08:00:00"}, "features": ["OG"], "hasArtwork": false, "storeNumber": "58816-293074"}, {"id": "1013933", "name": "北京祥云东方苑二店", "address": {"city": "北京市", "streetAddressLine1": "顺义区", "streetAddressLine2": "11号楼107", "streetAddressLine3": "空港街道安泰大街6号院", "postalCode": null}, "coordinates": {"latitude": 40.088573, "longitude": 116.536745}, "today": {"closeTime": "22:00:00", "openTime": "08:00:00"}, "features": ["OG", "DL", "PO"], "hasArtwork": false, "storeNumber": "29889-255104"}, {"id": "1005447", "name": "北京北清路永旺商城店", "address": {"city": "北京市", "streetAddressLine1": "昌平区", "streetAddressLine2": "永旺国际商城购物中心1层NO.120区域", "streetAddressLine3": "北清路1号院1号楼", "postalCode": "102208"}, "coordinates": {"latitude": 40.095857, "longitude": 116.290712}, "today": {"closeTime": "22:00:00", "openTime": "10:00:00"}, "features": ["OG", "DL", "MIC"], "hasArtwork": false, "storeNumber": "17139-178351"}, {"id": "1009491", "name": "北京祥云东方苑咖啡店", "address": {"city": "北京市", "streetAddressLine1": "顺义区", "streetAddressLine2": "10号楼102号", "streetAddressLine3": "临空经济核心区安泰大街9号院", "postalCode": null}, "coordinates": {"latitude": 40.091537, "longitude": 116.534588}, "today": {"closeTime": "22:00:00", "openTime": "08:00:00"}, "features": ["OG", "DL", "NCB", "PO"], "hasArtwork": false, "storeNumber": "23854-232084"}, {"id": "1025378", "name": "北京未来中心咖啡店", "address": {"city": "北京市", "streetAddressLine1": "北京市昌平区英才南一街3号院1号楼103", "streetAddressLine2": null, "streetAddressLine3": null, "postalCode": "100000"}, "coordinates": {"latitude": 40.115862, "longitude": 116.478844}, "today": {"closeTime": "18:30:00", "openTime": "09:00:00"}, "features": ["OG", "MIC"], "hasArtwork": false, "storeNumber": "58061-292077"}, {"id": "1005329", "name": "北京房山悦盛路店", "address": {"city": "北京市", "streetAddressLine1": "房山区", "streetAddressLine2": "奥特莱斯F1-B06", "streetAddressLine3": "悦盛路6号院", "postalCode": "102488"}, "coordinates": {"latitude": 39.764505, "longitude": 116.186268}, "today": {"closeTime": "22:00:00", "openTime": "10:00:00"}, "features": ["OG", "DL", "MIC"], "hasArtwork": false, "storeNumber": "19516-200344"}, {"id": "1758", "name": "北京首都国际机场5店", "address": {"city": "北京市", "streetAddressLine1": "顺义区", "streetAddressLine2": "到达大厅A2LE08#", "streetAddressLine3": "首都机场3号航站楼", "postalCode": "100621"}, "coordinates": {"latitude": 40.055235, "longitude": 116.615245}, "today": {"closeTime": "00:00:00", "openTime": "00:00:00"}, "features": ["OG"], "hasArtwork": false, "storeNumber": "32274-113605"}, {"id": "1014167", "name": "北京首都机场11店", "address": {"city": "北京市", "streetAddressLine1": "朝阳区", "streetAddressLine2": null, "streetAddressLine3": "北京首都国际机场T3航站楼4层公共区", "postalCode": null}, "coordinates": {"latitude": 40.055433, "longitude": 116.616447}, "today": {"closeTime": "00:00:00", "openTime": "00:00:00"}, "features": ["OG", "NCB"], "hasArtwork": true, "storeNumber": "47230-253785"}, {"id": "1008345", "name": "北京首都国际机场9店", "address": {"city": "北京市", "streetAddressLine1": "朝阳区", "streetAddressLine2": "3层", "streetAddressLine3": "首都机场三号航站楼A3E4", "postalCode": "100621"}, "coordinates": {"latitude": 40.057828, "longitude": 116.615587}, "today": {"closeTime": "22:30:00", "openTime": "05:30:00"}, "features": ["OG"], "hasArtwork": false, "storeNumber": "22051-214145"}, {"id": "1021425", "name": "北京生命园路咖啡店", "address": {"city": "北京市", "streetAddressLine1": "昌平区", "streetAddressLine2": "生命园路4号院4号楼1层", "streetAddressLine3": "生命园路4号院", "postalCode": null}, "coordinates": {"latitude": 40.100919, "longitude": 116.267835}, "today": {"closeTime": "20:00:00", "openTime": "07:30:00"}, "features": ["OG", "DL", "MIC"], "hasArtwork": false, "storeNumber": "54488-286734"}, {"id": "116514", "name": "北京首都国际机场八店", "address": {"city": "北京市", "streetAddressLine1": "朝阳区", "streetAddressLine2": "2层", "streetAddressLine3": "首都机场T3航站楼D区", "postalCode": "100000"}, "coordinates": {"latitude": 40.061088, "longitude": 116.614893}, "today": {"closeTime": "21:30:00", "openTime": "06:00:00"}, "features": ["OG"], "hasArtwork": false, "storeNumber": "19279-198284"}, {"id": "1901", "name": "北京首都国际机场1店", "address": {"city": "北京市", "streetAddressLine1": "顺义区", "streetAddressLine2": "一层公共区东侧", "streetAddressLine3": "首都国际机场1号航站楼", "postalCode": "100621"}, "coordinates": {"latitude": 40.080987, "longitude": 116.588774}, "today": {"closeTime": "00:00:00", "openTime": "00:00:00"}, "features": ["OG"], "hasArtwork": false, "storeNumber": "34056-96041"}, {"id": "1009094", "name": "北京首都国际机场10店", "address": {"city": "北京市", "streetAddressLine1": "首都国际机场T2航站楼出发层国内安检隔离", "streetAddressLine2": "北京顺义区首都国际机场T2航站楼", "streetAddressLine3": "北京市顺义区内GC202", "postalCode": "100000"}, "coordinates": {"latitude": 40.079906, "longitude": 116.590777}, "today": {"closeTime": "00:00:00", "openTime": "00:00:00"}, "features": ["OG"], "hasArtwork": false, "storeNumber": "23566-220944"}, {"id": "1561", "name": "北京首都国际机场2店", "address": {"city": "北京市", "streetAddressLine1": "顺义区", "streetAddressLine2": null, "streetAddressLine3": "首都国际机场2号航站楼一层国际到港厅", "postalCode": "100621"}, "coordinates": {"latitude": 40.07909, "longitude": 116.594235}, "today": {"closeTime": "00:00:00", "openTime": "00:00:00"}, "features": ["OG"], "hasArtwork": false, "storeNumber": "34057-96048"}, {"id": "1012879", "name": "北京龙湖时代天街店", "address": {"city": "北京市", "streetAddressLine1": "大兴区", "streetAddressLine2": null, "streetAddressLine3": "永大路1号楼102室", "postalCode": null}, "coordinates": {"latitude": 39.687554, "longitude": 116.320917}, "today": {"closeTime": "21:30:00", "openTime": "10:00:00"}, "features": ["OG", "DL", "MIC", "PO"], "hasArtwork": false, "storeNumber": "28730-250564"}, {"id": "1022380", "name": "北京首都国际机场12店", "address": {"city": "北京市", "streetAddressLine1": "北京市顺义区", "streetAddressLine2": "T3B2NW3", "streetAddressLine3": "首都国际机场T3航站楼国际隔离区", "postalCode": "100000"}, "coordinates": {"latitude": 40.066182, "longitude": 116.618531}, "today": {"closeTime": "00:00:00", "openTime": "00:00:00"}, "features": ["OG"], "hasArtwork": false, "storeNumber": "54898-288649"}, {"id": "68285", "name": "北京首都国际机场7店", "address": {"city": "北京市", "streetAddressLine1": "顺义区", "streetAddressLine2": null, "streetAddressLine3": "首都国际机场三号航站楼国际隔离区B2W13", "postalCode": "100621"}, "coordinates": {"latitude": 40.075936, "longitude": 116.612277}, "today": {"closeTime": "00:00:00", "openTime": "00:00:00"}, "features": ["OG"], "hasArtwork": false, "storeNumber": "15907-166748"}, {"id": "68880", "name": "北京首都国际机场6店", "address": {"city": "北京市", "streetAddressLine1": "顺义区", "streetAddressLine2": null, "streetAddressLine3": "首都国际机场三号航站楼国际隔离区B2S13", "postalCode": "100621"}, "coordinates": {"latitude": 40.07879, "longitude": 116.613639}, "today": {"closeTime": "00:00:00", "openTime": "00:00:00"}, "features": ["OG"], "hasArtwork": false, "storeNumber": "15906-166747"}, {"id": "1011404", "name": "北京天星街咖啡店", "address": {"city": "北京市", "streetAddressLine1": "房山区", "streetAddressLine2": "7号楼一层", "streetAddressLine3": "天星街1号院", "postalCode": null}, "coordinates": {"latitude": 39.755183, "longitude": 116.161326}, "today": {"closeTime": "21:00:00", "openTime": "09:00:00"}, "features": ["OG", "DL", "MIC"], "hasArtwork": false, "storeNumber": "25931-242324"}, {"id": "1023743", "name": "北京大兴天宫院凯德一店", "address": {"city": "北京市", "streetAddressLine1": "北京市大兴区华佗路2号L1-05B", "streetAddressLine2": null, "streetAddressLine3": "块", "postalCode": "100000"}, "coordinates": {"latitude": 39.672309, "longitude": 116.319628}, "today": {"closeTime": "22:00:00", "openTime": "10:00:00"}, "features": ["OG", "DL"], "hasArtwork": false, "storeNumber": "55529-289249"}, {"id": "1023750", "name": "北京大兴天宫院凯德二店", "address": {"city": "北京市", "streetAddressLine1": "北京市大兴区华佗路2号L6-01B", "streetAddressLine2": null, "streetAddressLine3": "块", "postalCode": "100000"}, "coordinates": {"latitude": 39.671644, "longitude": 116.31879}, "today": {"closeTime": "22:00:00", "openTime": "10:00:00"}, "features": ["OG"], "hasArtwork": false, "storeNumber": "55879-289753"}, {"id": "1025026", "name": "北京后沙峪国门智慧城店", "address": {"city": "北京市", "streetAddressLine1": "北京市顺义区国门智慧城一层105单元", "streetAddressLine2": null, "streetAddressLine3": null, "postalCode": "100000"}, "coordinates": {"latitude": 40.118972, "longitude": 116.558425}, "today": {"closeTime": "21:00:00", "openTime": "08:00:00"}, "features": ["OG", "DL", "PO"], "hasArtwork": false, "storeNumber": "55130-288943"}, {"id": "1023040", "name": "北京房山政通南路店", "address": {"city": "北京市", "streetAddressLine1": "北京市房山区政通南路2号院1号楼一层01", "streetAddressLine2": null, "streetAddressLine3": null, "postalCode": "100000"}, "coordinates": {"latitude": 39.745962, "longitude": 116.141577}, "today": {"closeTime": "22:00:00", "openTime": "08:00:00"}, "features": ["OG", "DL", "MIC", "NCB", "PO", "SBB"], "hasArtwork": false, "storeNumber": "55602-289461"}, {"id": "1005952", "name": "北京房山北关西路咖啡店", "address": {"city": "北京市", "streetAddressLine1": "房山区", "streetAddressLine2": "华冠购物中心一层", "streetAddressLine3": "良乡北关西路14号", "postalCode": "102401"}, "coordinates": {"latitude": 39.735436, "longitude": 116.139267}, "today": {"closeTime": "21:30:00", "openTime": "08:00:00"}, "features": ["OG", "DL", "MIC"], "hasArtwork": false, "storeNumber": "19932-202704"}, {"id": "1010047", "name": "北京新顺南大街咖啡店", "address": {"city": "北京市", "streetAddressLine1": "顺义区", "streetAddressLine2": "1幢一层2单元", "streetAddressLine3": "新顺南大街11号", "postalCode": "101300"}, "coordinates": {"latitude": 40.126401, "longitude": 116.650648}, "today": {"closeTime": "21:00:00", "openTime": "08:00:00"}, "features": ["OG", "DL", "MIC"], "hasArtwork": false, "storeNumber": "24521-236944"}, {"id": "1009357", "name": "廊坊三河天洋广场咖啡店", "address": {"city": "廊坊市", "streetAddressLine1": "亿丰大街南侧汉王路西侧", "streetAddressLine2": null, "streetAddressLine3": "天洋广场购物中心", "postalCode": "065201"}, "coordinates": {"latitude": 39.96572, "longitude": 116.822536}, "today": {"closeTime": "21:30:00", "openTime": "08:00:00"}, "features": ["OG", "MIC"], "hasArtwork": false, "storeNumber": "23727-231706"}, {"id": "1022104", "name": "北京马坡鲁能乐活广场店", "address": {"city": "北京市", "streetAddressLine1": "北京市顺义区马坡镇和宜园1号楼一层101", "streetAddressLine2": null, "streetAddressLine3": null, "postalCode": null}, "coordinates": {"latitude": 40.178997, "longitude": 116.652122}, "today": {"closeTime": "21:00:00", "openTime": "08:00:00"}, "features": ["OG", "DL", "PO"], "hasArtwork": false, "storeNumber": "54338-285974"}, {"id": "1025520", "name": "北京昌平悦荟万科店", "address": {"city": "北京市", "streetAddressLine1": "昌平区南环路10号悦荟万科商场L1001", "streetAddressLine2": null, "streetAddressLine3": null, "postalCode": "100000"}, "coordinates": {"latitude": 40.21239, "longitude": 116.238374}, "today": {"closeTime": "22:00:00", "openTime": "09:00:00"}, "features": ["OG", "DL", "MIC"], "hasArtwork": false, "storeNumber": "57662-291780"}, {"id": "1016403", "name": "廊坊燕郊永旺梦乐城店", "address": {"city": "廊坊市", "streetAddressLine1": "高新区", "streetAddressLine2": "永旺梦乐城购物中心一层192号", "streetAddressLine3": "G120国道27号", "postalCode": "065201"}, "coordinates": {"latitude": 39.948573, "longitude": 116.864793}, "today": {"closeTime": "22:00:00", "openTime": "09:00:00"}, "features": ["OG", "PO"], "hasArtwork": false, "storeNumber": "49129-267091"}, {"id": "1013043", "name": "北京乐多港店", "address": {"city": "北京市", "streetAddressLine1": "昌平区", "streetAddressLine2": "L1028", "streetAddressLine3": "城南街道南口路29号", "postalCode": null}, "coordinates": {"latitude": 40.228576, "longitude": 116.18929}, "today": {"closeTime": "21:00:00", "openTime": "10:00:00"}, "features": ["OG", "DL", "MIC", "PO"], "hasArtwork": false, "storeNumber": "28915-250485"}, {"id": "1012987", "name": "廊坊万向城购物中心店", "address": {"city": "廊坊市", "streetAddressLine1": "广阳区", "streetAddressLine2": null, "streetAddressLine3": "裕华路188号", "postalCode": "065000"}, "coordinates": {"latitude": 39.537263, "longitude": 116.684497}, "today": {"closeTime": "22:00:00", "openTime": "08:00:00"}, "features": ["OG", "PO"], "hasArtwork": false, "storeNumber": "28784-249524"}, {"id": "1011346", "name": "北京龙山东路咖啡店", "address": {"city": "北京市", "streetAddressLine1": "怀柔区", "streetAddressLine2": "1号楼一层03单元", "streetAddressLine3": "龙山东路2号院", "postalCode": null}, "coordinates": {"latitude": 40.315529, "longitude": 116.630134}, "today": {"closeTime": "21:00:00", "openTime": "08:00:00"}, "features": ["OG", "DL", "MIC"], "hasArtwork": false, "storeNumber": "25180-240065"}, {"id": "1021058", "name": "北京怀柔万达店", "address": {"city": "北京市", "streetAddressLine1": "北京市", "streetAddressLine2": "怀柔区青春路与府前街交叉口，万达商场一层", "streetAddressLine3": "怀柔区", "postalCode": null}, "coordinates": {"latitude": 40.316882, "longitude": 116.629995}, "today": {"closeTime": "22:00:00", "openTime": "09:00:00"}, "features": ["OG", "DL", "MIC", "PO"], "hasArtwork": false, "storeNumber": "53645-285875"}, {"id": "68798", "name": "廊坊万达广场店", "address": {"city": "廊坊市", "streetAddressLine1": "广阳区", "streetAddressLine2": null, "streetAddressLine3": "新华路50号廊坊万达广场1051-2号铺位", "postalCode": "65000"}, "coordinates": {"latitude": 39.522214, "longitude": 116.707263}, "today": {"closeTime": "22:00:00", "openTime": "08:00:00"}, "features": ["OG", "MIC", "PO"], "hasArtwork": false, "storeNumber": "16338-167084"}, {"id": "1023497", "name": "廊坊新朝阳购物中心店", "address": {"city": "廊坊市", "streetAddressLine1": "廊坊市广阳区爱民东道111号", "streetAddressLine2": null, "streetAddressLine3": null, "postalCode": "065000"}, "coordinates": {"latitude": 39.528498, "longitude": 116.725241}, "today": {"closeTime": "22:00:00", "openTime": "08:00:00"}, "features": ["OG", "MIC"], "hasArtwork": false, "storeNumber": "57194-291241"}, {"id": "1013330", "name": "廊坊明珠大厦咖啡店", "address": {"city": "廊坊市", "streetAddressLine1": "广阳区", "streetAddressLine2": null, "streetAddressLine3": "新华路43号", "postalCode": "131000"}, "coordinates": {"latitude": 39.520138, "longitude": 116.708681}, "today": {"closeTime": "22:00:00", "openTime": "08:00:00"}, "features": ["OG", "PO"], "hasArtwork": false, "storeNumber": "29118-251327"}, {"id": "1019872", "name": "北京滨河路咖啡店", "address": {"city": "北京市", "streetAddressLine1": "北京市", "streetAddressLine2": "滨河路178号万象汇一层", "streetAddressLine3": "密云区", "postalCode": "100000"}, "coordinates": {"latitude": 40.356173, "longitude": 116.835302}, "today": {"closeTime": "21:00:00", "openTime": "10:00:00"}, "features": ["OG", "DL", "MIC", "PO"], "hasArtwork": false, "storeNumber": "51464-278264"}, {"id": "1015696", "name": "天津武清意安广场店", "address": {"city": "天津市", "streetAddressLine1": "武清区", "streetAddressLine2": "威尼都H1-101，102A", "streetAddressLine3": "前进道与翠通路交口", "postalCode": "300150"}, "coordinates": {"latitude": 39.378151, "longitude": 117.012421}, "today": {"closeTime": "21:00:00", "openTime": "09:30:00"}, "features": ["OG", "DL", "PO"], "hasArtwork": false, "storeNumber": "48243-262026"}, {"id": "1022261", "name": "天津佛罗伦萨小镇店", "address": {"city": "天津市", "streetAddressLine1": "天津新技术产业园区武清开发区", "streetAddressLine2": null, "streetAddressLine3": "前进道北侧佛罗伦萨小镇一楼F00D12号", "postalCode": "300000"}, "coordinates": {"latitude": 39.376439, "longitude": 117.017841}, "today": {"closeTime": "20:00:00", "openTime": "10:00:00"}, "features": ["OG", "MIC", "NCB", "PO", "SBB"], "hasArtwork": false, "storeNumber": "54347-279166"}, {"id": "1017689", "name": "天津武清大光明店", "address": {"city": "天津市", "streetAddressLine1": "武清区", "streetAddressLine2": "新光广场地上一层1-51、1-52号铺位", "streetAddressLine3": "杨村街泉州路西侧", "postalCode": "301700"}, "coordinates": {"latitude": 39.386678, "longitude": 117.058853}, "today": {"closeTime": "22:00:00", "openTime": "09:30:00"}, "features": ["OG", "DL", "PO"], "hasArtwork": false, "storeNumber": "50358-274287"}, {"id": "1012374", "name": "天津武清友谊商场店", "address": {"city": "天津市", "streetAddressLine1": "武清区", "streetAddressLine2": "武清友谊百货商厦一层", "streetAddressLine3": "京津公路342号", "postalCode": "300000"}, "coordinates": {"latitude": 39.370987, "longitude": 117.0697}, "today": {"closeTime": "21:00:00", "openTime": "08:00:00"}, "features": ["OG", "DL", "PO"], "hasArtwork": false, "storeNumber": "28189-249604"}]}